{"type": "Topology", "objects": {"zonas": {"type": "GeometryCollection", "geometries": [{"type": "Point", "coordinates": [-54.3327697, -34.4840864], "properties": {"name": "rocha-L001", "habilitados": 403, "nombre": "Colegio San José"}}, {"type": "Point", "coordinates": [-54.3322866, -34.4841682], "properties": {"name": "rocha-L002", "habilitados": 811, "nombre": "Colegio San José"}}, {"type": "Point", "coordinates": [-54.3298074, -34.4753402], "properties": {"name": "rocha-L003", "habilitados": 405, "nombre": "A.JU.PEN.RO"}}, {"type": "Point", "coordinates": [-54.3342351, -34.4798995], "properties": {"name": "rocha-L004", "habilitados": 406, "nombre": "CEPAR UNI"}}, {"type": "Point", "coordinates": [-54.3291244, -34.4872117], "properties": {"name": "rocha-L005", "habilitados": 1616, "nombre": "Escuela Artigas"}}, {"type": "Point", "coordinates": [-54.3337672, -34.482647], "properties": {"name": "rocha-L006", "habilitados": 809, "nombre": "Intendencia Departamental"}}, {"type": "Point", "coordinates": [-54.3338623, -34.4825013], "properties": {"name": "rocha-L007", "habilitados": 405, "nombre": "Intendencia Departamental"}}, {"type": "Point", "coordinates": [-54.3355874, -34.4817992], "properties": {"name": "rocha-L008", "habilitados": 810, "nombre": "B.P.S."}}, {"type": "Point", "coordinates": [-54.3353728, -34.4817638], "properties": {"name": "rocha-L009", "habilitados": 402, "nombre": "UNITEC"}}, {"type": "Point", "coordinates": [-54.3355904, -34.4816168], "properties": {"name": "rocha-L010", "habilitados": 401, "nombre": "Espacio Arte y C. J."}}, {"type": "Point", "coordinates": [-54.3346376, -34.4824135], "properties": {"name": "rocha-L011", "habilitados": 406, "nombre": "INAU"}}, {"type": "Point", "coordinates": [-54.3336803, -34.4828411], "properties": {"name": "rocha-L012", "habilitados": 401, "nombre": "Junta Departamental"}}, {"type": "Point", "coordinates": [-54.3352487, -34.4837432], "properties": {"name": "rocha-L013", "habilitados": 402, "nombre": "Sede Retirados Militares"}}, {"type": "Point", "coordinates": [-54.3342014, -34.4833209], "properties": {"name": "rocha-L014", "habilitados": 400, "nombre": "Registro Civil"}}, {"type": "Point", "coordinates": [-54.3353628, -34.4788754], "properties": {"name": "rocha-L015", "habilitados": 403, "nombre": "Jardín de Infantes N°108"}}, {"type": "Point", "coordinates": [-54.3360997, -34.4787007], "properties": {"name": "rocha-L016", "habilitados": 1601, "nombre": "Escuela Varela"}}, {"type": "Point", "coordinates": [-54.3359978, -34.4789705], "properties": {"name": "rocha-L017", "habilitados": 403, "nombre": "Escuela Varela"}}, {"type": "Point", "coordinates": [-54.3356179, -34.4792521], "properties": {"name": "rocha-L018", "habilitados": 1209, "nombre": "Instituto de Formación Docente"}}, {"type": "Point", "coordinates": [-54.3344169, -34.4806442], "properties": {"name": "rocha-L019", "habilitados": 401, "nombre": "Ctro. Cultural Ma. Elida Marquizo"}}, {"type": "Point", "coordinates": [-54.3341973, -34.4806699], "properties": {"name": "rocha-L020", "habilitados": 402, "nombre": "Ctro. Cultural Ma. Elida Marquizo"}}, {"type": "Point", "coordinates": [-54.3371551, -34.480794], "properties": {"name": "rocha-L021", "habilitados": 404, "nombre": "Club Social Rocha"}}, {"type": "Point", "coordinates": [-54.3382639, -34.4819545], "properties": {"name": "rocha-L022", "habilitados": 404, "nombre": "Escuela de Música"}}, {"type": "Point", "coordinates": [-54.3371075, -34.4793063], "properties": {"name": "rocha-L023", "habilitados": 406, "nombre": "Colegio Larrañaga"}}, {"type": "Point", "coordinates": [-54.3414204, -34.4822546], "properties": {"name": "rocha-L024", "habilitados": 404, "nombre": "O.S.E"}}, {"type": "Point", "coordinates": [-54.3345534, -34.4794378], "properties": {"name": "rocha-L025", "habilitados": 808, "nombre": "Colegio CEI"}}, {"type": "Point", "coordinates": [-54.3343436, -34.4794026], "properties": {"name": "rocha-L026", "habilitados": 403, "nombre": "Colegio CEI"}}, {"type": "Point", "coordinates": [-54.3370676, -34.480005], "properties": {"name": "rocha-L027", "habilitados": 403, "nombre": "Inspección de Escuelas"}}, {"type": "Point", "coordinates": [-54.337937, -34.4797131], "properties": {"name": "rocha-L028", "habilitados": 1208, "nombre": "Escuela Ramírez"}}, {"type": "Point", "coordinates": [-54.3369526, -34.4789271], "properties": {"name": "rocha-L029", "habilitados": 405, "nombre": "Instituto CADI"}}, {"type": "Point", "coordinates": [-54.3363709, -34.4802338], "properties": {"name": "rocha-L030", "habilitados": 405, "nombre": "Asociación de Escribanos"}}, {"type": "Point", "coordinates": [-54.3265865, -34.4812987], "properties": {"name": "rocha-L031", "habilitados": 805, "nombre": "Escuela N°43"}}, {"type": "Point", "coordinates": [-54.327064, -34.481061], "properties": {"name": "rocha-L032", "habilitados": 403, "nombre": "Escuela N°43"}}, {"type": "Point", "coordinates": [-54.3283944, -34.4813119], "properties": {"name": "rocha-L033", "habilitados": 808, "nombre": "Liceo N° 1"}}, {"type": "Point", "coordinates": [-54.3287625, -34.480967], "properties": {"name": "rocha-L034", "habilitados": 810, "nombre": "Liceo N° 1"}}, {"type": "Point", "coordinates": [-54.3253676, -34.4792983], "properties": {"name": "rocha-L035", "habilitados": 1214, "nombre": "Liceo N° 3"}}, {"type": "Point", "coordinates": [-54.3242527, -34.4875912], "properties": {"name": "rocha-L036", "habilitados": 403, "nombre": "Casa de los Deportes"}}, {"type": "Point", "coordinates": [-54.3243852, -34.4875461], "properties": {"name": "rocha-L037", "habilitados": 393, "nombre": "Salud Mental"}}, {"type": "Point", "coordinates": [-54.326771, -34.4910877], "properties": {"name": "rocha-L038", "habilitados": 346, "nombre": "Jardin de Infantes Nº 98"}}, {"type": "Point", "coordinates": [-54.337473, -34.4748211], "properties": {"name": "rocha-L039", "habilitados": 704, "nombre": "Liceo N° 2"}}, {"type": "Point", "coordinates": [-54.4162357, -34.3761128], "properties": {"name": "rocha-L040", "habilitados": 149, "nombre": "Escuela N°86"}}, {"type": "Point", "coordinates": [-54.3497897, -34.4855326], "properties": {"name": "rocha-L041", "habilitados": 352, "nombre": "Escuela N° 90"}}, {"type": "Point", "coordinates": [-54.4229044, -34.6706612], "properties": {"name": "rocha-L042", "habilitados": 107, "nombre": "Escuela N° 63"}}, {"type": "Point", "coordinates": [-54.1862685, -34.4524048], "properties": {"name": "rocha-L043", "habilitados": 21, "nombre": "Sociedad Fomento y Rural 19 de Abril"}}, {"type": "Point", "coordinates": [-53.7961777, -34.3356485], "properties": {"name": "rocha-L044", "habilitados": 479, "nombre": "Escuela N° 61"}}, {"type": "Point", "coordinates": [-54.0678972, -34.3611138], "properties": {"name": "rocha-L045", "habilitados": 271, "nombre": "Junta Local"}}, {"type": "Point", "coordinates": [-54.2504628, -34.3428971], "properties": {"name": "rocha-L046", "habilitados": 58, "nombre": "Escuela N° 26"}}, {"type": "Point", "coordinates": [-54.2816934, -34.0366153], "properties": {"name": "rocha-L047", "habilitados": 633, "nombre": "Escuela N° 35"}}, {"type": "Point", "coordinates": [-54.2810688, -34.0375219], "properties": {"name": "rocha-L048", "habilitados": 314, "nombre": "Liceo Local"}}, {"type": "Point", "coordinates": [-54.3133495, -34.2232137], "properties": {"name": "rocha-L049", "habilitados": 77, "nombre": "Escuela Granja N° 42"}}, {"type": "Point", "coordinates": [-54.1545105, -34.6579813], "properties": {"name": "rocha-L050", "habilitados": 1587, "nombre": "Liceo Local de La Paloma"}}, {"type": "Point", "coordinates": [-54.1552464, -34.658647], "properties": {"name": "rocha-L051", "habilitados": 1190, "nombre": "Centro Cultural"}}, {"type": "Point", "coordinates": [-54.1556115, -34.6597002], "properties": {"name": "rocha-L052", "habilitados": 1586, "nombre": "Escuela N° 52"}}, {"type": "Point", "coordinates": [-54.1560309, -34.6593354], "properties": {"name": "rocha-L053", "habilitados": 787, "nombre": "Jardin de Infantes N° 106"}}, {"type": "Point", "coordinates": [-54.1567464, -34.6591746], "properties": {"name": "rocha-L054", "habilitados": 386, "nombre": "Caif Noctilucas"}}, {"type": "Point", "coordinates": [-54.1592254, -34.6585971], "properties": {"name": "rocha-L055", "habilitados": 393, "nombre": "Municipio de La Paloma"}}, {"type": "Point", "coordinates": [-54.1536813, -34.6603574], "properties": {"name": "rocha-L056", "habilitados": 378, "nombre": "Casa Bahía"}}, {"type": "Point", "coordinates": [-54.2974367, -34.3012355], "properties": {"name": "rocha-L057", "habilitados": 41, "nombre": "Escuela N° 16"}}, {"type": "Point", "coordinates": [-54.0669769, -34.3603975], "properties": {"name": "rocha-L058", "habilitados": 44, "nombre": "Escuela N°18"}}, {"type": "Point", "coordinates": [-53.8625245, -34.2007917], "properties": {"name": "rocha-L059", "habilitados": 808, "nombre": "Jardín de Infantes N°104"}}, {"type": "Point", "coordinates": [-53.8613051, -34.201059], "properties": {"name": "rocha-L060", "habilitados": 405, "nombre": "O.S.E"}}, {"type": "Point", "coordinates": [-53.8595644, -34.1990483], "properties": {"name": "rocha-L061", "habilitados": 407, "nombre": "Oficina de Balnearios"}}, {"type": "Point", "coordinates": [-54.15943, -34.63314], "properties": {"name": "rocha-L062", "habilitados": 1208, "nombre": "Escuela N° 5"}}, {"type": "Point", "coordinates": [-53.8582685, -34.1998713], "properties": {"name": "rocha-L063", "habilitados": 803, "nombre": "Caif CINPAL"}}, {"type": "Point", "coordinates": [-53.8595479, -34.1994443], "properties": {"name": "rocha-L064", "habilitados": 404, "nombre": "Juzgado de Paz"}}, {"type": "Point", "coordinates": [-53.8598831, -34.1987418], "properties": {"name": "rocha-L065", "habilitados": 810, "nombre": "Oficina BPS"}}, {"type": "Point", "coordinates": [-53.8599647, -34.1985658], "properties": {"name": "rocha-L066", "habilitados": 811, "nombre": "Municipio Castillos"}}, {"type": "Point", "coordinates": [-53.8621269, -34.2002595], "properties": {"name": "rocha-L067", "habilitados": 1617, "nombre": "Liceo Local castillos"}}, {"type": "Point", "coordinates": [-53.860216, -34.1999502], "properties": {"name": "rocha-L068", "habilitados": 374, "nombre": "Sala 2 de Mayo"}}, {"type": "Point", "coordinates": [-54.2046808, -33.6748272], "properties": {"name": "rocha-L069", "habilitados": 403, "nombre": "UTU"}}, {"type": "Point", "coordinates": [-54.086549, -33.674323], "properties": {"name": "rocha-L070", "habilitados": 407, "nombre": "Municipio Nuevo"}}, {"type": "Point", "coordinates": [-54.2085909, -33.6738814], "properties": {"name": "rocha-L071", "habilitados": 405, "nombre": "Jardín de Infantes N°101"}}, {"type": "Point", "coordinates": [-54.2083132, -33.6729234], "properties": {"name": "rocha-L072", "habilitados": 404, "nombre": "Asociación Fomento Rural"}}, {"type": "Point", "coordinates": [-54.2071009, -33.6739787], "properties": {"name": "rocha-L073", "habilitados": 403, "nombre": "Anexo Municipio"}}, {"type": "Point", "coordinates": [-54.208161, -33.6776996], "properties": {"name": "rocha-L074", "habilitados": 1618, "nombre": "Escuela N° 3"}}, {"type": "Point", "coordinates": [-54.2088782, -33.6773701], "properties": {"name": "rocha-L075", "habilitados": 406, "nombre": "O.S.E."}}, {"type": "Point", "coordinates": [-54.2075612, -33.6758637], "properties": {"name": "rocha-L076", "habilitados": 407, "nombre": "Club El Fogón"}}, {"type": "Point", "coordinates": [-54.2054366, -33.6698992], "properties": {"name": "rocha-L077", "habilitados": 813, "nombre": "Escuela N° 93"}}, {"type": "Point", "coordinates": [-54.2104463, -33.6814304], "properties": {"name": "rocha-L078", "habilitados": 1171, "nombre": "Liceo Local  de Lascano"}}, {"type": "Point", "coordinates": [-54.3060278, -33.875726], "properties": {"name": "rocha-L079", "habilitados": 96, "nombre": "Escuela N° 47"}}, {"type": "Point", "coordinates": [-53.5534207, -33.6839302], "properties": {"name": "rocha-L080", "habilitados": 347, "nombre": "Junta Local"}}, {"type": "Point", "coordinates": [-53.5561572, -33.6828008], "properties": {"name": "rocha-L081", "habilitados": 690, "nombre": "Escuela N° 12"}}, {"type": "Point", "coordinates": [-53.4480733, -33.6935915], "properties": {"name": "rocha-L082", "habilitados": 1595, "nombre": "Escuela N° 28"}}, {"type": "Point", "coordinates": [-53.4521331, -33.6939792], "properties": {"name": "rocha-L083", "habilitados": 398, "nombre": "Oficina BPS"}}, {"type": "Point", "coordinates": [-53.46785, -33.69435], "properties": {"name": "rocha-L084", "habilitados": 399, "nombre": "Municipio Chuy"}}, {"type": "Point", "coordinates": [-53.4591119, -33.6960128], "properties": {"name": "rocha-L085", "habilitados": 400, "nombre": "UTU Chuy"}}, {"type": "Point", "coordinates": [-53.4562108, -33.6963562], "properties": {"name": "rocha-L086", "habilitados": 399, "nombre": "Juzgado de Paz"}}, {"type": "Point", "coordinates": [-53.4551154, -33.6977302], "properties": {"name": "rocha-L087", "habilitados": 399, "nombre": "Escuela N° 100"}}, {"type": "Point", "coordinates": [-53.4639764, -33.6958711], "properties": {"name": "rocha-L088", "habilitados": 1592, "nombre": "Jardín de Infantes N° 103"}}, {"type": "Point", "coordinates": [-53.4538216, -33.6990744], "properties": {"name": "rocha-L089", "habilitados": 1195, "nombre": "Escuela N° 107"}}, {"type": "Point", "coordinates": [-53.4572836, -33.6997852], "properties": {"name": "rocha-L090", "habilitados": 1598, "nombre": "Liceo N° 1  Chuy"}}, {"type": "Point", "coordinates": [-53.4580581, -33.699567], "properties": {"name": "rocha-L091", "habilitados": 1198, "nombre": "Liceo N° 2 Chuy"}}, {"type": "Point", "coordinates": [-53.4664213, -33.7014833], "properties": {"name": "rocha-L092", "habilitados": 399, "nombre": "Escuela N°110"}}, {"type": "Point", "coordinates": [-53.4690901, -33.6938269], "properties": {"name": "rocha-L093", "habilitados": 1170, "nombre": "Escuela N°88"}}, {"type": "Point", "coordinates": [-53.4778669, -33.6923086], "properties": {"name": "rocha-L094", "habilitados": 1148, "nombre": "IAE Chuy"}}, {"type": "Point", "coordinates": [-53.522064, -33.8955612], "properties": {"name": "rocha-L095", "habilitados": 349, "nombre": "Centro Cultural"}}, {"type": "Point", "coordinates": [-53.5207021, -33.8955557], "properties": {"name": "rocha-L096", "habilitados": 695, "nombre": "Liceo Local"}}, {"type": "Point", "coordinates": [-53.5234591, -33.8949626], "properties": {"name": "rocha-L097", "habilitados": 684, "nombre": "Escuela N° 29"}}, {"type": "Point", "coordinates": [-53.7967442, -33.2672183], "properties": {"name": "rocha-L098", "habilitados": 750, "nombre": "Escuela N° 55"}}, {"type": "Point", "coordinates": [-53.7957902, -33.2705832], "properties": {"name": "rocha-L099", "habilitados": 374, "nombre": "Centro Cultural"}}, {"type": "Point", "coordinates": [-53.7966438, -33.2677881], "properties": {"name": "rocha-L100", "habilitados": 370, "nombre": "Liceo Local"}}, {"type": "Point", "coordinates": [-53.8426879, -33.5548421], "properties": {"name": "rocha-L101", "habilitados": 60, "nombre": "Escuela N° 27"}}, {"type": "Point", "coordinates": [-54.1833858, -33.6438204], "properties": {"name": "rocha-L102", "habilitados": 50, "nombre": "Escuela N°33 \"Sixto Silvino Correa Medeiros\""}}, {"type": "Point", "coordinates": [-53.7142034, -33.6036811], "properties": {"name": "rocha-L103", "habilitados": 562, "nombre": "Escuela N° 17"}}, {"type": "Point", "coordinates": [-53.7179209, -33.6061172], "properties": {"name": "rocha-L104", "habilitados": 276, "nombre": "Junta Local"}}, {"type": "Point", "coordinates": [-53.394045, -33.7553163], "properties": {"name": "rocha-L105", "habilitados": 523, "nombre": "Escuela N° 74"}}, {"type": "Point", "coordinates": [-53.3916389, -33.7510794], "properties": {"name": "rocha-L106", "habilitados": 262, "nombre": "Junta Local"}}, {"type": "Point", "coordinates": [-53.3877289, -33.7524512], "properties": {"name": "rocha-L107", "habilitados": 260, "nombre": "A.JU.PEN.BAYPU"}}, {"type": "Point", "coordinates": [-53.3928305, -33.7536078], "properties": {"name": "rocha-L108", "habilitados": 514, "nombre": "CEA/74 (UTU)"}}, {"type": "Point", "coordinates": [-53.5578319, -34.0413865], "properties": {"name": "rocha-L109", "habilitados": 817, "nombre": "Escuela N° 96"}}]}}}