{"type": "Topology", "objects": {"zonas": {"type": "GeometryCollection", "geometries": [{"type": "Point", "coordinates": [-57.87859, -34.24502], "properties": {"name": "colonia-L001", "habilitados": 389, "nombre": "ESCUELA Nº 79"}}, {"type": "Point", "coordinates": [-57.84928, -34.47048], "properties": {"name": "colonia-L002", "habilitados": 404, "nombre": "B.P.S"}}, {"type": "Point", "coordinates": [-57.84942, -34.47033], "properties": {"name": "colonia-L003", "habilitados": 407, "nombre": "B.P.S"}}, {"type": "Point", "coordinates": [-57.8439, -34.46782], "properties": {"name": "colonia-L004", "habilitados": 810, "nombre": "CASA DE LA CULTURA"}}, {"type": "Point", "coordinates": [-57.6605184, -34.1294678], "properties": {"name": "colonia-L005", "habilitados": 807, "nombre": "MIDES"}}, {"type": "Point", "coordinates": [-57.842966, -34.467826], "properties": {"name": "colonia-L006", "habilitados": 811, "nombre": "SECRETARIA DE LA JUVENTUD"}}, {"type": "Point", "coordinates": [-57.84772, -34.46953], "properties": {"name": "colonia-L007", "habilitados": 1213, "nombre": "Escuela 2"}}, {"type": "Point", "coordinates": [-57.84345, -34.46847], "properties": {"name": "colonia-L008", "habilitados": 406, "nombre": "COLEGIO SAN GABRIEL"}}, {"type": "Point", "coordinates": [-57.84332, -34.46859], "properties": {"name": "colonia-L009", "habilitados": 407, "nombre": "SOCIEDAD ESPAÑOLA"}}, {"type": "Point", "coordinates": [-57.84411, -34.46812], "properties": {"name": "colonia-L010", "habilitados": 2033, "nombre": "Liceo 1 JL Perrou"}}, {"type": "Point", "coordinates": [-57.84272, -34.45587], "properties": {"name": "colonia-L011", "habilitados": 1628, "nombre": "Escuela 49"}}, {"type": "Point", "coordinates": [-57.84341, -34.46757], "properties": {"name": "colonia-L012", "habilitados": 408, "nombre": "CTC"}}, {"type": "Point", "coordinates": [-57.84954, -34.47012], "properties": {"name": "colonia-L013", "habilitados": 406, "nombre": "AJUPENCO"}}, {"type": "Point", "coordinates": [-57.84206, -34.45845], "properties": {"name": "colonia-L014", "habilitados": 408, "nombre": "CLUB OTTO WULF"}}, {"type": "Point", "coordinates": [-57.85039, -34.46945], "properties": {"name": "colonia-L015", "habilitados": 369, "nombre": "BASTION DEL CARMEN"}}, {"type": "Point", "coordinates": [-57.80707, -34.44224], "properties": {"name": "colonia-L016", "habilitados": 1129, "nombre": "ESCUELA Nº 82"}}, {"type": "Point", "coordinates": [-57.804185, -34.439752], "properties": {"name": "colonia-L017", "habilitados": 754, "nombre": "CENTRO BARRIAL EL GENERAL"}}, {"type": "Point", "coordinates": [-57.80915, -34.44315], "properties": {"name": "colonia-L018", "habilitados": 1466, "nombre": "CEA 82"}}, {"type": "Point", "coordinates": [-57.85296, -34.44127], "properties": {"name": "colonia-L019", "habilitados": 1549, "nombre": "LICEO Nº 2"}}, {"type": "Point", "coordinates": [-57.8622978999999, -34.4392096], "properties": {"name": "colonia-L020", "habilitados": 2325, "nombre": "IAE"}}, {"type": "Point", "coordinates": [-57.86332, -34.4372], "properties": {"name": "colonia-L021", "habilitados": 719, "nombre": "UNIVERSIDAD DE LA EMPRESA"}}, {"type": "Point", "coordinates": [-57.78508, -34.19842], "properties": {"name": "colonia-L022", "habilitados": 245, "nombre": "ESCUELA Nº 14"}}, {"type": "Point", "coordinates": [-57.79394, -34.135949], "properties": {"name": "colonia-L023", "habilitados": 170, "nombre": "ESCUELA Nº 54"}}, {"type": "Point", "coordinates": [-57.644907, -34.007356], "properties": {"name": "colonia-L024", "habilitados": 595, "nombre": "Liceo Miguelete"}}, {"type": "Point", "coordinates": [-57.645759, -34.003744], "properties": {"name": "colonia-L025", "habilitados": 591, "nombre": "Escuela 46"}}, {"type": "Point", "coordinates": [-57.61661, -34.26465], "properties": {"name": "colonia-L026", "habilitados": 1585, "nombre": "ESCUELA Nº 38"}}, {"type": "Point", "coordinates": [-57.611375, -34.266514], "properties": {"name": "colonia-L027", "habilitados": 1585, "nombre": "ESCUELA Nº 142"}}, {"type": "Point", "coordinates": [-57.615416, -34.270019], "properties": {"name": "colonia-L028", "habilitados": 1588, "nombre": "Liceo Nuevo"}}, {"type": "Point", "coordinates": [-57.616229, -34.264331], "properties": {"name": "colonia-L029", "habilitados": 794, "nombre": "U.T.U"}}, {"type": "Point", "coordinates": [-57.61367, -34.26551], "properties": {"name": "colonia-L030", "habilitados": 398, "nombre": "Colegio San José"}}, {"type": "Point", "coordinates": [-57.615083, -34.270452], "properties": {"name": "colonia-L031", "habilitados": 394, "nombre": "MUNICIPIO"}}, {"type": "Point", "coordinates": [-57.611736, -34.266263], "properties": {"name": "colonia-L032", "habilitados": 362, "nombre": "CASONA DE AFE"}}, {"type": "Point", "coordinates": [-57.371672, -34.114388], "properties": {"name": "colonia-L033", "habilitados": 209, "nombre": "ESCUELA Nº 15"}}, {"type": "Point", "coordinates": [-57.3455636, -34.3120966], "properties": {"name": "colonia-L034", "habilitados": 2771, "nombre": "LICEO"}}, {"type": "Point", "coordinates": [-57.35046, -34.30908], "properties": {"name": "colonia-L035", "habilitados": 791, "nombre": "Sociedad Jubilados y Pensionistas Rosario"}}, {"type": "Point", "coordinates": [-57.35638480250024, -34.31859122873096], "properties": {"name": "colonia-L036", "habilitados": 785, "nombre": "ESCUELA Nº 133"}}, {"type": "Point", "coordinates": [-57.3517909, -34.3115511], "properties": {"name": "colonia-L037", "habilitados": 1186, "nombre": "ESCUELA Nº 4"}}, {"type": "Point", "coordinates": [-57.3518534, -34.3111305], "properties": {"name": "colonia-L038", "habilitados": 1185, "nombre": "U.T.U"}}, {"type": "Point", "coordinates": [-57.35102833133615, -34.315039559018885], "properties": {"name": "colonia-L039", "habilitados": 790, "nombre": "ESCUELA Nº 3"}}, {"type": "Point", "coordinates": [-57.35402929408822, -34.32092679214377], "properties": {"name": "colonia-L040", "habilitados": 791, "nombre": "ESCUELA Nº 128"}}, {"type": "Point", "coordinates": [-57.3413498, -34.3309233], "properties": {"name": "colonia-L041", "habilitados": 1127, "nombre": "INSTITUTO DE FORMACIÓN DOCENTE ROSARIO"}}, {"type": "Point", "coordinates": [-57.31174546586051, -34.347254200344125], "properties": {"name": "colonia-L042", "habilitados": 532, "nombre": "ESCUELA DEL HOGAR"}}, {"type": "Point", "coordinates": [-57.312103506112244, -34.34728815532496], "properties": {"name": "colonia-L043", "habilitados": 792, "nombre": "ESCUELA Nº 9"}}, {"type": "Point", "coordinates": [-57.26643652613722, -34.343352244215644], "properties": {"name": "colonia-L044", "habilitados": 1933, "nombre": "LICEO D. ARMAN UGON"}}, {"type": "Point", "coordinates": [-57.265026, -34.337935], "properties": {"name": "colonia-L045", "habilitados": 1161, "nombre": "Escuela 26"}}, {"type": "Point", "coordinates": [-57.264921, -34.342415], "properties": {"name": "colonia-L046", "habilitados": 386, "nombre": "Escuela del Hogar"}}, {"type": "Point", "coordinates": [-57.264679, -34.340409], "properties": {"name": "colonia-L047", "habilitados": 352, "nombre": "Club Valdense"}}, {"type": "Point", "coordinates": [-57.10808, -34.19967], "properties": {"name": "colonia-L048", "habilitados": 714, "nombre": "ESCUELA Nº 36"}}, {"type": "Point", "coordinates": [-57.231198, -34.293662], "properties": {"name": "colonia-L049", "habilitados": 2415, "nombre": "ESCUELA Nº 10"}}, {"type": "Point", "coordinates": [-57.235413704874766, -34.28753488549366], "properties": {"name": "colonia-L050", "habilitados": 807, "nombre": "AJUPECS"}}, {"type": "Point", "coordinates": [-57.229299, -34.286466], "properties": {"name": "colonia-L051", "habilitados": 804, "nombre": "ESCUELA DEL HOGAR"}}, {"type": "Point", "coordinates": [-57.23384460302561, -34.28522399295656], "properties": {"name": "colonia-L052", "habilitados": 400, "nombre": "MOVIMIENTO NUEVAS GENERACIONES"}}, {"type": "Point", "coordinates": [-57.230776, -34.283369], "properties": {"name": "colonia-L053", "habilitados": 1609, "nombre": "ESCUELA Nº 40"}}, {"type": "Point", "coordinates": [-57.231359, -34.293367], "properties": {"name": "colonia-L054", "habilitados": 802, "nombre": "CLUB ARTESANO. GERMAN IMHOFF S/N"}}, {"type": "Point", "coordinates": [-57.232564915342536, -34.28774425548413], "properties": {"name": "colonia-L055", "habilitados": 803, "nombre": "Liceo los olivos"}}, {"type": "Point", "coordinates": [-57.234839, -34.300673], "properties": {"name": "colonia-L056", "habilitados": 1210, "nombre": "Liceo Nueva Helvecia"}}, {"type": "Point", "coordinates": [-57.23453, -34.28465], "properties": {"name": "colonia-L057", "habilitados": 1124, "nombre": "Utu Nueva Helvecia"}}, {"type": "Point", "coordinates": [-57.194009, -34.180183], "properties": {"name": "colonia-L058", "habilitados": 79, "nombre": "ESCUELA Nº 12"}}, {"type": "Point", "coordinates": [-57.2542, -33.998373], "properties": {"name": "colonia-L059", "habilitados": 94, "nombre": "ESCUELA Nº 42"}}, {"type": "Point", "coordinates": [-57.369584, -33.875501], "properties": {"name": "colonia-L060", "habilitados": 2064, "nombre": "ESCUELA Nº 93"}}, {"type": "Point", "coordinates": [-57.459886, -34.014545], "properties": {"name": "colonia-L061", "habilitados": 107, "nombre": "ESCUELA Nº 30"}}, {"type": "Point", "coordinates": [-57.907574, -34.041779], "properties": {"name": "colonia-L062", "habilitados": 398, "nombre": "ESCUELA Nº 62"}}, {"type": "Point", "coordinates": [-57.807635, -33.934929], "properties": {"name": "colonia-L063", "habilitados": 380, "nombre": "CASA DE LA CULTURA"}}, {"type": "Point", "coordinates": [-57.809741, -33.935776], "properties": {"name": "colonia-L064", "habilitados": 1892, "nombre": "LICEO"}}, {"type": "Point", "coordinates": [-57.80788, -33.939506], "properties": {"name": "colonia-L065", "habilitados": 1504, "nombre": "ESCUELA Nº 32"}}, {"type": "Point", "coordinates": [-58.030279, -34.158137], "properties": {"name": "colonia-L066", "habilitados": 761, "nombre": "ESCUELA Nº 104"}}, {"type": "Point", "coordinates": [-58.030362, -34.158172], "properties": {"name": "colonia-L067", "habilitados": 754, "nombre": "LICEO"}}, {"type": "Point", "coordinates": [-58.164345, -34.01344], "properties": {"name": "colonia-L068", "habilitados": 185, "nombre": "Escuela N° 17"}}, {"type": "Point", "coordinates": [-58.28127213068507, -33.99720394314274], "properties": {"name": "colonia-L069", "habilitados": 2388, "nombre": "LICEO N° 1 DAVID BONJOUR"}}, {"type": "Point", "coordinates": [-58.2852437, -33.9868851], "properties": {"name": "colonia-L070", "habilitados": 2389, "nombre": "LICEO N° 2 PROF. MIGUEL BANCHERO"}}, {"type": "Point", "coordinates": [-58.284248, -33.996359], "properties": {"name": "colonia-L071", "habilitados": 1194, "nombre": "ESCUELA N° 6"}}, {"type": "Point", "coordinates": [-58.283095923320836, -33.99091294551219], "properties": {"name": "colonia-L072", "habilitados": 1193, "nombre": "ESCUELA N° 92"}}, {"type": "Point", "coordinates": [-58.288444, -33.998108], "properties": {"name": "colonia-L073", "habilitados": 802, "nombre": "ESCUELA N° 5"}}, {"type": "Point", "coordinates": [-58.283262, -34.00742], "properties": {"name": "colonia-L074", "habilitados": 801, "nombre": "ESCUELA Nº 114"}}, {"type": "Point", "coordinates": [-58.288768, -33.998897], "properties": {"name": "colonia-L075", "habilitados": 401, "nombre": "ESCUELA DEL HOGAR \"OTELIA R. DE SARTORI\""}}, {"type": "Point", "coordinates": [-58.284689, -34.004951], "properties": {"name": "colonia-L076", "habilitados": 1198, "nombre": "ESCUELA TÉCNICA CARMELO"}}, {"type": "Point", "coordinates": [-58.28469561534254, -33.99815395060919], "properties": {"name": "colonia-L077", "habilitados": 801, "nombre": "INSTITUTO DE FORMACIÓN DOCENTE"}}, {"type": "Point", "coordinates": [-58.2847684, -33.9857411], "properties": {"name": "colonia-L078", "habilitados": 1198, "nombre": "ESCUELA 138"}}, {"type": "Point", "coordinates": [-58.292612, -33.987223], "properties": {"name": "colonia-L079", "habilitados": 797, "nombre": "ESCUELA 117"}}, {"type": "Point", "coordinates": [-58.2853051, -33.9857526], "properties": {"name": "colonia-L080", "habilitados": 400, "nombre": "SEDE ARTIGAS F.C."}}, {"type": "Point", "coordinates": [-58.285754, -34.002723], "properties": {"name": "colonia-L081", "habilitados": 798, "nombre": "ESCUELA N° 11"}}, {"type": "Point", "coordinates": [-58.2840839, -34.0003347], "properties": {"name": "colonia-L082", "habilitados": 401, "nombre": "CASA DE LA CULTURA"}}, {"type": "Point", "coordinates": [-58.28433780489118, -33.99970638058752], "properties": {"name": "colonia-L083", "habilitados": 786, "nombre": "COMITÉ DE JUBILADOS"}}, {"type": "Point", "coordinates": [-58.283805, -33.9858916], "properties": {"name": "colonia-L084", "habilitados": 729, "nombre": "ESCUELA 137"}}, {"type": "Point", "coordinates": [-58.27941, -33.87774], "properties": {"name": "colonia-L085", "habilitados": 301, "nombre": "ESCUELA Nº 23"}}, {"type": "Point", "coordinates": [-58.41482, -33.87143], "properties": {"name": "colonia-L086", "habilitados": 797, "nombre": "LICEO DR. M. PEREZ FONTANA"}}, {"type": "Point", "coordinates": [-58.41482, -33.87143], "properties": {"name": "colonia-L087", "habilitados": 1207, "nombre": "LICEO DR. M. PEREZ FONTANA"}}, {"type": "Point", "coordinates": [-58.408127715342545, -33.87337659634057], "properties": {"name": "colonia-L088", "habilitados": 1203, "nombre": "U.T.U"}}, {"type": "Point", "coordinates": [-58.4074, -33.8736], "properties": {"name": "colonia-L089", "habilitados": 1605, "nombre": "ESCUELA Nº8"}}, {"type": "Point", "coordinates": [-58.407, -33.87241], "properties": {"name": "colonia-L090", "habilitados": 1607, "nombre": "ESCUELA Nº 7"}}, {"type": "Point", "coordinates": [-58.40731374232873, -33.87445663011177], "properties": {"name": "colonia-L091", "habilitados": 399, "nombre": "ESCUELA DEL HOGAR. LUCAS ROSELLI CASI ARTIGAS."}}, {"type": "Point", "coordinates": [-58.409365984657455, -33.869967984560915], "properties": {"name": "colonia-L092", "habilitados": 401, "nombre": "JARDIN DE Nº 139"}}, {"type": "Point", "coordinates": [-58.405537468711174, -33.86894099168892], "properties": {"name": "colonia-L093", "habilitados": 402, "nombre": "CAIF Una Pindó"}}, {"type": "Point", "coordinates": [-58.40694395397238, -33.8738262409385], "properties": {"name": "colonia-L094", "habilitados": 398, "nombre": "Municipio de Nueva Palmira"}}, {"type": "Point", "coordinates": [-58.40742, -33.87366], "properties": {"name": "colonia-L095", "habilitados": 337, "nombre": "Oficina de Nueva Palmira de Intendencia"}}, {"type": "Point", "coordinates": [-58.261678, -33.988879], "properties": {"name": "colonia-L096", "habilitados": 228, "nombre": "ESCUELA 111 CURUPÍ"}}, {"type": "Point", "coordinates": [-58.235721, -33.981977], "properties": {"name": "colonia-L097", "habilitados": 683, "nombre": "ESCUELA N° 51"}}, {"type": "Point", "coordinates": [-57.711876, -34.431243], "properties": {"name": "colonia-L098", "habilitados": 409, "nombre": "CLUB HURACAN. RUTA 1"}}, {"type": "Point", "coordinates": [-57.706514, -34.436593], "properties": {"name": "colonia-L099", "habilitados": 203, "nombre": "ESCUELA N° 56"}}, {"type": "Point", "coordinates": [-57.597004, -34.421986], "properties": {"name": "colonia-L100", "habilitados": 537, "nombre": "ESCUELA Nº 119"}}, {"type": "Point", "coordinates": [-57.83763, -34.463785], "properties": {"name": "colonia-L101", "habilitados": 2390, "nombre": "ESCUELA Nº 90"}}, {"type": "Point", "coordinates": [-57.850178151158005, -34.471566750278974], "properties": {"name": "colonia-L102", "habilitados": 800, "nombre": "COLEGIO SAN JUAN BAUTISTA"}}, {"type": "Point", "coordinates": [-57.84547, -34.47286], "properties": {"name": "colonia-L103", "habilitados": 401, "nombre": "BIT"}}, {"type": "Point", "coordinates": [-57.84605, -34.471345], "properties": {"name": "colonia-L104", "habilitados": 1597, "nombre": "ESCUELA Nº 1"}}, {"type": "Point", "coordinates": [-57.83612, -34.46634], "properties": {"name": "colonia-L105", "habilitados": 1197, "nombre": "UTU colonia"}}, {"type": "Point", "coordinates": [-57.84548, -34.47324], "properties": {"name": "colonia-L106", "habilitados": 767, "nombre": "CENTRO CULTURAL AFE"}}, {"type": "Point", "coordinates": [-57.69405000968205, -34.33589069135521], "properties": {"name": "colonia-L107", "habilitados": 764, "nombre": "ESCUELA Nº 55"}}, {"type": "Point", "coordinates": [-57.4565, -34.26357], "properties": {"name": "colonia-L108", "habilitados": 392, "nombre": "ESCUELA Nº 29"}}, {"type": "Point", "coordinates": [-57.43848785555771, -34.435963254419256], "properties": {"name": "colonia-L109", "habilitados": 397, "nombre": "B.P.S. JUAN LACAZE"}}, {"type": "Point", "coordinates": [-57.43567416550141, -34.43343584222104], "properties": {"name": "colonia-L110", "habilitados": 399, "nombre": "SOJUPEN"}}, {"type": "Point", "coordinates": [-57.43755777501362, -34.433583593261815], "properties": {"name": "colonia-L111", "habilitados": 1596, "nombre": "ESCUELA Nº 39"}}, {"type": "Point", "coordinates": [-57.43461035397238, -34.43650974619072], "properties": {"name": "colonia-L112", "habilitados": 1198, "nombre": "U.T.U JUAN LACAZE"}}, {"type": "Point", "coordinates": [-57.437109876031, -34.431931745114504], "properties": {"name": "colonia-L113", "habilitados": 796, "nombre": "ESCUELA ESPECIAL N° 136"}}, {"type": "Point", "coordinates": [-57.435794, -34.437285], "properties": {"name": "colonia-L114", "habilitados": 400, "nombre": "OFICINA MIDES JUAN LACAZE"}}, {"type": "Point", "coordinates": [-57.445787094426485, -34.425036423734156], "properties": {"name": "colonia-L115", "habilitados": 1988, "nombre": "LICEO Nº 2 DE JUAN LACAZE"}}, {"type": "Point", "coordinates": [-57.43911581779562, -34.434856325825606], "properties": {"name": "colonia-L116", "habilitados": 399, "nombre": "MUNICIPIO JUAN LACAZE"}}, {"type": "Point", "coordinates": [-57.439045075374494, -34.43767843935128], "properties": {"name": "colonia-L117", "habilitados": 801, "nombre": "COLEGIO MARIA AUXILIADORA"}}, {"type": "Point", "coordinates": [-57.43939, -34.43655], "properties": {"name": "colonia-L118", "habilitados": 400, "nombre": "SALON CUOPYC"}}, {"type": "Point", "coordinates": [-57.436390579594324, -34.434592324342844], "properties": {"name": "colonia-L119", "habilitados": 1157, "nombre": "ESCUELA INDUSTRIAL SAN JUAN BOSCO"}}, {"type": "Point", "coordinates": [-57.4459503465391, -34.42439667301163], "properties": {"name": "colonia-L120", "habilitados": 1498, "nombre": "LICEO Nº 1"}}, {"type": "Point", "coordinates": [-57.45260659436508, -34.411934810304295], "properties": {"name": "colonia-L121", "habilitados": 724, "nombre": "JARDIN N° 145"}}]}}}