{"dept": "montevideo", "locales": [{"localId": "montevideo-L001", "lat": -34.906342, "lon": -56.2096211, "nombre": "DIRECCIÓN GENERAL FORESTAL M.G.A.P.", "direccion": "DIRECCIÓN GENERAL FORESTAL M.G.A.P.-CERRITO  318 esq. COLÓN", "nombreNorm": "DIRECCION GENERAL FORESTAL M.G.A.P.", "localidad": ".", "series": ["AAA"], "circuitos": [1, 2, 3], "habilitados": 1187, "ranges": [["AAA", 1, 7008], ["AAA", 7009, 9329], ["AAA", 9330, 10360]]}, {"localId": "montevideo-L002", "lat": -34.906813, "lon": -56.2075851, "nombre": "ASOCIACIÓN DE DESPACHANTES DE ADUANA DEL URUGUAY", "direccion": "ASOCIACIÓN DE DESPACHANTES DE ADUANA DEL URUGUAY-ZABALA 1427 esq. 25 DE MAYO", "nombreNorm": "ASOCIACION DE DESPACHANTES DE ADUANA DEL URUGUAY", "localidad": ".", "series": ["AAA", "AAB"], "circuitos": [13, 14, 15, 16], "habilitados": 1899, "ranges": [["AAA", 15915, 16340], ["AAA", 16341, 16749], ["AAA", 16750, 17133], ["AAA", 17134, 17143], ["AAB", 1, 7802]]}, {"localId": "montevideo-L003", "lat": -34.9053822, "lon": -56.2009549, "nombre": "C.E.S. OFICINA REGULADORA", "direccion": "C.E.S. OFICINA REGULADORA-RINCÓN 712 esq. JUNCAL", "nombreNorm": "C.E.S. OFICINA REGULADORA", "localidad": ".", "series": ["AAA"], "circuitos": [4], "habilitados": 397, "ranges": [["AAA", 10361, 11283]]}, {"localId": "montevideo-L004", "lat": -34.9060086, "lon": -56.2077565, "nombre": "INSTITUTO NACIONAL DE ARTES ESCÉNICAS", "direccion": "INSTITUTO NACIONAL DE ARTES ESCÉNICAS-ZABALA 1480 esq. CERRITO", "nombreNorm": "INSTITUTO NACIONAL DE ARTES ESCENICAS", "localidad": ".", "series": ["AAA"], "circuitos": [5, 6, 7], "habilitados": 1193, "ranges": [["AAA", 11284, 12025], ["AAA", 12026, 12711], ["AAA", 12712, 13367]]}, {"localId": "montevideo-L005", "lat": -34.9061334, "lon": -56.204158, "nombre": "MINISTERIO DE TRANSPORTE Y OBRAS PÚBLICAS", "direccion": "MINISTERIO DE TRANSPORTE Y OBRAS PÚBLICAS-RINCÓN  561 esq. ITUZAINGÓ", "nombreNorm": "MINISTERIO DE TRANSPORTE Y OBRAS PUBLICAS", "localidad": ".", "series": ["AAA"], "circuitos": [8, 9], "habilitados": 795, "ranges": [["AAA", 13368, 13981], ["AAA", 13982, 14520]]}, {"localId": "montevideo-L006", "lat": -34.9030498, "lon": -56.1974540999999, "nombre": "INSTITUTO DE CAPACITACIÓN DE FUNCIONARIOS PÚBLICOS", "direccion": "INSTITUTO DE CAPACITACIÓN DE FUNCIONARIOS PÚBLICOS-CONVENCIÓN   1523 esq. AV. URUGUAY", "nombreNorm": "INSTITUTO DE CAPACITACION DE FUNCIONARIOS PUBLICOS", "localidad": ".", "series": ["AAA"], "circuitos": [10, 11, 12], "habilitados": 1197, "ranges": [["AAA", 14521, 15004], ["AAA", 15005, 15470], ["AAA", 15471, 15914]]}, {"localId": "montevideo-L007", "lat": -34.9068454, "lon": -56.2129646, "nombre": "I.N.A.U.", "direccion": "I.N.A.U. - CENFORES-PIEDRAS 162 esq. GUARANÍ", "nombreNorm": "I.N.A.U.", "localidad": ".", "series": ["AAB", "ABA", "ABB"], "circuitos": [17, 18], "habilitados": 1480, "ranges": [["AAB", 7803, 8795], ["ABA", 1, 4482], ["ABA", 4483, 4649], ["ABB", 1, 5999]]}, {"localId": "montevideo-L008", "lat": -34.909268, "lon": -56.2106509, "nombre": "ESCUELA Nº 65", "direccion": "ESCUELA Nº 65-SARANDÍ 207 esq. FRANCISCO MACIEL", "nombreNorm": "ESCUELA Nº 65", "localidad": ".", "series": ["ACA"], "circuitos": [19, 20, 21, 22], "habilitados": 1626, "ranges": [["ACA", 1, 6002], ["ACA", 6003, 7020], ["ACA", 7021, 7859], ["ACA", 7860, 8691]]}, {"localId": "montevideo-L009", "lat": -34.9088529, "lon": -56.2087064, "nombre": "INSTITUTO NACIONAL DEL COOPERATIVISMO", "direccion": "INSTITUTO NACIONAL DEL COOPERATIVISMO-COLÓN 1350 esq. SARANDÍ", "nombreNorm": "INSTITUTO NACIONAL DEL COOPERATIVISMO", "localidad": ".", "series": ["ACA"], "circuitos": [23], "habilitados": 408, "ranges": [["ACA", 8692, 9386]]}, {"localId": "montevideo-L010", "lat": -34.9085884, "lon": -56.2083346999999, "nombre": "CAJA BANCARIA", "direccion": "CAJA BANCARIA-SARANDÍ 325 esq. COLÓN", "nombreNorm": "CAJA BANCARIA", "localidad": ".", "series": ["ACA"], "circuitos": [24, 25], "habilitados": 814, "ranges": [["ACA", 9387, 10017], ["ACA", 10018, 10628]]}, {"localId": "montevideo-L011", "lat": -34.9088231, "lon": -56.2081092, "nombre": "BPS", "direccion": "BPS - HISTORIA LABORAL-SARANDÍ 332 esq. ALZAIBAR", "nombreNorm": "BPS", "localidad": ".", "series": ["ACA"], "circuitos": [26], "habilitados": 408, "ranges": [["ACA", 10629, 11183]]}, {"localId": "montevideo-L012", "lat": -34.908816, "lon": -56.2075093, "nombre": "COLEGIO BILINGÜE CIUDAD VIEJA", "direccion": "COLEGIO BILINGÜE CIUDAD VIEJA-ALZAIBAR 1328 esq. SARANDÍ", "nombreNorm": "COLEGIO BILINGUE CIUDAD VIEJA", "localidad": ".", "series": ["ACA"], "circuitos": [27, 28, 29], "habilitados": 1222, "ranges": [["ACA", 11184, 11691], ["ACA", 11692, 12176], ["ACA", 12177, 12637]]}, {"localId": "montevideo-L013", "lat": -34.9077665, "lon": -56.2053399, "nombre": "ESCUELA DE ARTES Y ARTESANÍAS PEDRO FIGARI", "direccion": "ESCUELA DE ARTES Y ARTESANÍAS PEDRO FIGARI - ANEXO-SARANDÍ 472 esq. TREINTA Y TRES", "nombreNorm": "ESCUELA DE ARTES Y ARTESANIAS PEDRO FIGARI", "localidad": ".", "series": ["ACA"], "circuitos": [30, 31], "habilitados": 818, "ranges": [["ACA", 12638, 13079], ["ACA", 13080, 13498]]}, {"localId": "montevideo-L014", "lat": -34.9096706, "lon": -56.1976109999999, "nombre": "LICEO Nº 1", "direccion": "LICEO Nº 1-ANDES 1180 esq. MALDONADO", "nombreNorm": "LICEO Nº 1", "localidad": ".", "series": ["ACA"], "circuitos": [32, 33], "habilitados": 777, "ranges": [["ACA", 13499, 13913], ["ACA", 13914, 14323]]}, {"localId": "montevideo-L015", "lat": -34.9108523, "lon": -56.2102549, "nombre": "GURUYÚ WASTON", "direccion": "GURUYÚ WASTON-MACIEL 1277 esq. RECONQUISTA", "nombreNorm": "GURUYU WASTON", "localidad": ".", "series": ["ACB"], "circuitos": [34, 35], "habilitados": 663, "ranges": [["ACB", 1, 9602], ["ACB", 9603, 11220]]}, {"localId": "montevideo-L016", "lat": -34.9080865, "lon": -56.2062758999999, "nombre": "DIRECCIÓN GENERAL DEL REGISTRO CIVIL", "direccion": "DIRECCIÓN GENERAL DEL REGISTRO CIVIL-SARANDÍ  428 esq. MISIONES", "nombreNorm": "DIRECCION GENERAL DEL REGISTRO CIVIL", "localidad": ".", "series": ["ACB", "ADA", "ADB"], "circuitos": [36, 37], "habilitados": 1320, "ranges": [["ACB", 11221, 11343], ["ADA", 1, 6378], ["ADA", 6379, 6865], ["ADB", 1, 3825]]}, {"localId": "montevideo-L017", "lat": -34.8181587, "lon": -56.2138256, "nombre": "ESCUELA Nº 173", "direccion": "ESCUELA Nº 173 - Nº 196-RUBEN DARÍO 3071 esq. ITAZURUBÍ", "nombreNorm": "ESCUELA Nº 173", "localidad": ".", "series": ["AEA", "AEB", "BAA", "BAB", "BCA", "BCB", "BCC", "BCD", "BDB", "BDD", "BJB", "BOA", "BRA", "BSA", "BSB", "BTA", "BTB", "BVA", "BZC"], "circuitos": [38, 39, 40, 515, 516, 528, 529, 553, 554, 555, 556, 756, 772, 773, 774, 775, 809, 810, 811, 812, 888, 889, 890, 891, 892, 932, 933, 934, 935, 1077, 1078, 1079, 1080, 1081, 1082, 1083, 1084, 1085, 1086, 1087, 1088, 1089, 1133, 1134, 1135, 1136, 1137, 1138, 1139, 1140, 1141, 1142, 1215, 1216, 1217, 1218, 1219, 1220, 1395, 1396, 1397, 1398, 1399, 1400, 1401, 1402, 1726, 1727, 1728, 1729, 1730, 1731, 1732, 1733, 1941, 1942, 1943, 1944, 1945, 1946, 1947, 2001, 2002, 2003, 2004, 2005, 2006, 2007, 2008, 2009, 2015, 2016, 2017, 2018, 2019, 2020, 2021, 2022, 2023, 2024, 2025, 2026, 2030, 2031, 2032, 2033, 2034, 2035, 2036, 2037, 2106, 2107, 2108, 2109, 2110, 2111, 2112, 2274, 2275, 2276, 2277, 2278, 2279, 2280, 2281, 2282, 2510, 2511, 2512, 2513, 2514, 2515, 2516], "habilitados": 53506, "ranges": [["AEA", 1, 6742], ["AEA", 6743, 8435], ["AEB", 1, 4444], ["AEB", 4445, 6850], ["BAA", 41807, 42348], ["BAA", 42349, 42909], ["BAA", 48206, 48627], ["BAA", 48628, 49056], ["BAB", 47035, 48389], ["BAB", 48390, 49135], ["BAB", 49136, 49818], ["BAB", 49819, 50883], ["BCA", 107316, 107816], ["BCA", 114682, 115094], ["BCA", 115095, 115502], ["BCA", 115503, 115912], ["BCA", 115913, 116242], ["BCB", 57746, 58500], ["BCB", 58501, 59273], ["BCB", 59274, 59982], ["BCB", 59983, 60712], ["BCC", 23374, 23793], ["BCC", 23794, 24221], ["BCC", 24222, 24644], ["BCC", 24645, 25071], ["BCC", 25072, 25484], ["BCD", 20352, 20756], ["BCD", 20757, 21158], ["BCD", 21159, 21559], ["BCD", 21560, 21938], ["BDB", 34423, 36198], ["BDB", 36199, 37891], ["BDB", 37892, 39640], ["BDB", 39641, 41045], ["BDB", 41046, 42170], ["BDB", 42171, 43643], ["BDB", 43644, 45242], ["BDB", 45243, 46730], ["BDB", 46731, 48399], ["BDB", 48400, 49464], ["BDB", 49465, 50610], ["BDB", 50611, 51783], ["BDB", 51784, 52853], ["BDB", 83023, 83484], ["BDB", 83485, 83968], ["BDB", 83969, 84438], ["BDB", 84439, 84904], ["BDB", 84905, 85372], ["BDB", 85373, 85825], ["BDB", 85826, 86265], ["BDB", 86266, 86713], ["BDB", 86714, 87142], ["BDB", 87143, 87582], ["BDD", 7763, 8431], ["BDD", 8432, 9067], ["BDD", 9068, 9613], ["BDD", 9614, 10131], ["BDD", 10132, 10622], ["BDD", 10623, 11175], ["BJB", 21002, 21804], ["BJB", 21805, 22603], ["BJB", 22604, 23316], ["BJB", 23317, 23907], ["BJB", 23908, 24457], ["BJB", 24458, 24959], ["BJB", 24960, 25430], ["BJB", 25431, 25883], ["BOA", 35439, 35924], ["BOA", 35925, 36407], ["BOA", 36408, 36886], ["BOA", 36887, 37375], ["BOA", 37376, 37836], ["BOA", 37837, 38288], ["BOA", 38289, 38728], ["BOA", 38729, 39156], ["BRA", 53697, 54198], ["BRA", 54199, 54702], ["BRA", 54703, 55221], ["BRA", 55222, 55720], ["BRA", 55721, 56221], ["BRA", 56222, 56714], ["BRA", 56715, 57175], ["BSA", 1, 8646], ["BSA", 8647, 10217], ["BSA", 10218, 11204], ["BSA", 11205, 11975], ["BSA", 11976, 12722], ["BSA", 12723, 13367], ["BSA", 13368, 13953], ["BSA", 13954, 14515], ["BSA", 14516, 15012], ["BSA", 17364, 17796], ["BSA", 17797, 18219], ["BSA", 18220, 18628], ["BSA", 18629, 19040], ["BSA", 19041, 19445], ["BSB", 1, 8086], ["BSB", 8087, 9398], ["BSB", 9399, 10432], ["BSB", 10433, 11205], ["BSB", 11206, 12033], ["BSB", 12034, 12698], ["BSB", 12699, 13314], ["BTA", 1, 7287], ["BTA", 7288, 9168], ["BTA", 9169, 10799], ["BTA", 10800, 12089], ["BTA", 12090, 13348], ["BTA", 13349, 14614], ["BTA", 14615, 15481], ["BTA", 15482, 16431], ["BTB", 1, 13383], ["BTB", 13384, 15623], ["BTB", 15624, 17045], ["BTB", 17046, 18291], ["BTB", 18292, 19660], ["BTB", 19661, 20701], ["BTB", 20702, 21911], ["BVA", 51595, 52026], ["BVA", 52027, 52465], ["BVA", 52466, 52900], ["BVA", 52901, 53336], ["BVA", 53337, 53751], ["BVA", 53752, 54166], ["BVA", 54167, 54576], ["BVA", 54577, 54987], ["BVA", 54988, 55360], ["BZC", 7991, 8697], ["BZC", 8698, 9384], ["BZC", 9385, 10068], ["BZC", 10069, 10864], ["BZC", 10865, 12540], ["BZC", 12541, 13200], ["BZC", 13201, 13881]]}, {"localId": "montevideo-L018", "lat": -34.9044331, "lon": -56.1953396, "nombre": "COLEGIO INMACULADA CONCEPCIÓN", "direccion": "COLEGIO INMACULADA CONCEPCIÓN-MERCEDES 984 esq. JULIO HERRERA Y OBES", "nombreNorm": "COLEGIO INMACULADA CONCEPCION", "localidad": ".", "series": ["AFA", "AFB"], "circuitos": [41, 42], "habilitados": 1147, "ranges": [["AFA", 1, 4919], ["AFA", 4920, 5667], ["AFB", 1, 3024]]}, {"localId": "montevideo-L019", "lat": -34.9093246, "lon": -56.2012672, "nombre": "HEBRAICA MACABI", "direccion": "HEBRAICA MACABI-BARTOLOME MITRE S/N  esq. CAMACUA", "nombreNorm": "HEBRAICA MACABI", "localidad": ".", "series": ["AGA", "AGB"], "circuitos": [43, 44, 45], "habilitados": 1353, "ranges": [["AGA", 1, 6801], ["AGA", 6802, 7070], ["AGB", 1, 8035], ["AGB", 8036, 9791]]}, {"localId": "montevideo-L020", "lat": -34.9072277, "lon": -56.1949380999999, "nombre": "COLEGIO NUESTRA SEÑORA DEL HUERTO", "direccion": "COLEGIO NUESTRA SEÑORA DEL HUERTO-SAN JOSÉ 990 esq. JULIO HERRERA Y OBES", "nombreNorm": "COLEGIO NUESTRA SENORA DEL HUERTO", "localidad": ".", "series": ["AHA", "AHB"], "circuitos": [46, 47, 48, 49], "habilitados": 1814, "ranges": [["AHA", 1, 9768], ["AHA", 9769, 11602], ["AHA", 11603, 11940], ["AHB", 1, 6833], ["AHB", 6834, 8352]]}, {"localId": "montevideo-L021", "lat": -34.9049614, "lon": -56.1906788, "nombre": "ESCUELA Nº 2", "direccion": "ESCUELA Nº 2 - Nº 269 -COLONIA 1194 esq. CUAREIM", "nombreNorm": "ESCUELA Nº 2", "localidad": ".", "series": ["AIA"], "circuitos": [50, 51, 52, 53, 54, 55], "habilitados": 2454, "ranges": [["AIA", 1, 7714], ["AIA", 7715, 9341], ["AIA", 9342, 10386], ["AIA", 10387, 11310], ["AIA", 11311, 12110], ["AIA", 12111, 12798]]}, {"localId": "montevideo-L022", "lat": -34.9035677, "lon": -56.1865363999999, "nombre": "INMACULADO CORAZÓN DE MARÍA ADORATRICES", "direccion": "INMACULADO CORAZÓN DE MARÍA ADORATRICES-MERCEDES 1383 esq. EJIDO", "nombreNorm": "INMACULADO CORAZON DE MARIA ADORATRICES", "localidad": ".", "series": ["AIA", "AIB", "AJA"], "circuitos": [68, 69, 70], "habilitados": 2009, "ranges": [["AIA", 18806, 19136], ["AIB", 1, 4884], ["AIB", 4885, 7187], ["AIB", 7188, 7924], ["AJA", 1, 7886]]}, {"localId": "montevideo-L023", "lat": -34.9054194, "lon": -56.1865191, "nombre": "I.M.P.O.", "direccion": "I.M.P.O.-AV. 18 DE JULIO  1373 esq. GERMÁN BARBATO", "nombreNorm": "I.M.P.O.", "localidad": ".", "series": ["AIA"], "circuitos": [56], "habilitados": 411, "ranges": [["AIA", 12799, 13446]]}, {"localId": "montevideo-L024", "lat": -34.8101595, "lon": -56.2209491, "nombre": "IGLESIA PENTECOSTAL DIOS ES AMOR", "direccion": "IGLESIA PENTECOSTAL DIOS ES AMOR-CAGANCHA   1129 esq. AV. GRAL. RONDEAU", "nombreNorm": "IGLESIA PENTECOSTAL DIOS ES AMOR", "localidad": ".", "series": ["AIA"], "circuitos": [57, 58, 59], "habilitados": 1230, "ranges": [["AIA", 13447, 14025], ["AIA", 14026, 14606], ["AIA", 14607, 15141]]}, {"localId": "montevideo-L025", "lat": -34.90511, "lon": -56.192177, "nombre": "IGLESIA DE JESUCRISTO DE LOS SANTOS DE LOS ÚLTIMOS DÍAS", "direccion": "IGLESIA DE JESUCRISTO DE LOS SANTOS DE LOS ÚLTIMOS DÍAS-COLONIA   1116 esq. PARAGUAY", "nombreNorm": "IGLESIA DE JESUCRISTO DE LOS SANTOS DE LOS ULTIMOS DIAS", "localidad": ".", "series": ["AIA"], "circuitos": [60, 61], "habilitados": 819, "ranges": [["AIA", 15142, 15636], ["AIA", 15637, 16145]]}, {"localId": "montevideo-L026", "lat": -34.9038709, "lon": -56.1920157, "nombre": "U.T.U. I.T.I.", "direccion": "U.T.U. I.T.I.-MERCEDES 1131 esq. AV. GRAL. RONDEAU", "nombreNorm": "U.T.U. I.T.I.", "localidad": ".", "series": ["AIA"], "circuitos": [62, 63, 64, 65], "habilitados": 1642, "ranges": [["AIA", 16146, 16619], ["AIA", 16620, 17069], ["AIA", 17070, 17528], ["AIA", 17529, 17971]]}, {"localId": "montevideo-L027", "lat": -34.9067829, "lon": -56.2067048, "nombre": "CONTADURÍA GENERAL DE LA NACIÓN", "direccion": "CONTADURÍA GENERAL DE LA NACIÓN-PARAGUAY  1429 esq. COLONIA", "nombreNorm": "CONTADURIA GENERAL DE LA NACION", "localidad": ".", "series": ["AIA"], "circuitos": [66], "habilitados": 410, "ranges": [["AIA", 17972, 18388]]}, {"localId": "montevideo-L028", "lat": -34.901499, "lon": -56.1896589, "nombre": "ESCUELA TALLER Nº 259", "direccion": "ESCUELA TALLER Nº 259-YI 1573 esq. CERRO LARGO", "nombreNorm": "ESCUELA TALLER Nº 259", "localidad": ".", "series": ["AIA"], "circuitos": [67], "habilitados": 401, "ranges": [["AIA", 18389, 18805]]}, {"localId": "montevideo-L029", "lat": -34.9062357, "lon": -56.1861229, "nombre": "INTENDENCIA DE MONTEVIDEO", "direccion": "INTENDENCIA DE MONTEVIDEO - ATRIO-AV. 18 DE JULIO  1360  esq. EJIDO", "nombreNorm": "INTENDENCIA DE MONTEVIDEO", "localidad": ".", "series": ["AJA", "AJB", "AKA"], "circuitos": [71, 72, 73, 74, 75, 76, 77, 78, 79, 80], "habilitados": 4418, "ranges": [["AJA", 7887, 9824], ["AJA", 9825, 10142], ["AJB", 1, 6269], ["AJB", 6270, 7807], ["AKA", 1, 8616], ["AKA", 8617, 10581], ["AKA", 10582, 11951], ["AKA", 11952, 13203], ["AKA", 13204, 14178], ["AKA", 14179, 15113], ["AKA", 15114, 16021]]}, {"localId": "montevideo-L030", "lat": -34.908676, "lon": -56.1853573, "nombre": "ESCUELA Y LICEO ELBIO FERNÁNDEZ", "direccion": "ESCUELA Y LICEO ELBIO FERNÁNDEZ - PRIMARIA-CANELONES 1382 esq. EJIDO", "nombreNorm": "ESCUELA Y LICEO ELBIO FERNANDEZ", "localidad": ".", "series": ["AKA", "AKB", "ALA", "ALB"], "circuitos": [83, 84, 85, 86, 87, 88, 89, 90, 107, 108, 109, 110, 111, 112], "habilitados": 6180, "ranges": [["AKA", 17568, 18217], ["AKA", 18218, 18863], ["AKA", 18864, 19493], ["AKA", 19494, 20069], ["AKA", 20070, 20605], ["AKA", 20606, 21169], ["AKA", 21170, 21719], ["AKA", 21720, 22256], ["AKB", 8597, 9865], ["ALA", 1, 4279], ["ALA", 4280, 7991], ["ALA", 7992, 9546], ["ALA", 9547, 9906], ["ALB", 1, 8189], ["ALB", 8190, 10086], ["ALB", 10087, 11442]]}, {"localId": "montevideo-L031", "lat": -34.9087724, "lon": -56.1907207999999, "nombre": "ÁNIMA", "direccion": "ÁNIMA - BACHILLERATO TECNOLÓGICO-CANELONES 1162 esq. HÉCTOR GUTIÉRREZ RUIZ", "nombreNorm": "ANIMA", "localidad": ".", "series": ["AKA", "AKB"], "circuitos": [104, 105, 106], "habilitados": 1122, "ranges": [["AKA", 27956, 28358], ["AKB", 1, 7010], ["AKB", 7011, 8596]]}, {"localId": "montevideo-L032", "lat": -34.9066011, "lon": -56.1848882, "nombre": "INSTITUTO CULTURAL ANGLO", "direccion": "INSTITUTO CULTURAL ANGLO-SAN JOSÉ 1426 esq. SANTIAGO DE CHILE", "nombreNorm": "INSTITUTO CULTURAL ANGLO", "localidad": ".", "series": ["AKA"], "circuitos": [81, 82], "habilitados": 793, "ranges": [["AKA", 16022, 16818], ["AKA", 16819, 17567]]}, {"localId": "montevideo-L033", "lat": -34.9101378, "lon": -56.1869822, "nombre": "ESCUELA Nº 94", "direccion": "ESCUELA Nº 94 -DURAZNO 1331 esq. EJIDO", "nombreNorm": "ESCUELA Nº 94", "localidad": ".", "series": ["AKA"], "circuitos": [91, 92], "habilitados": 795, "ranges": [["AKA", 22257, 22750], ["AKA", 22751, 23238]]}, {"localId": "montevideo-L034", "lat": -34.9120462, "lon": -56.1880728, "nombre": "POLICLÍNICA BARRIO SUR", "direccion": "POLICLÍNICA BARRIO SUR-AV. GONZALO RAMÍREZ 1270 esq. CARLOS SAN VIANA", "nombreNorm": "POLICLINICA BARRIO SUR", "localidad": ".", "series": ["AKA"], "circuitos": [93, 94], "habilitados": 795, "ranges": [["AKA", 23239, 23714], ["AKA", 23715, 24159]]}, {"localId": "montevideo-L035", "lat": -34.9123299, "lon": -56.1892676, "nombre": "COOPERATIVA CUAREIM", "direccion": "COOPERATIVA CUAREIM-VICTOR RODRÍGUEZ ANDRADE 1218 esq. ZELMAR MICHELINI", "nombreNorm": "COOPERATIVA CUAREIM", "localidad": ".", "series": ["AKA"], "circuitos": [95], "habilitados": 397, "ranges": [["AKA", 24160, 24607]]}, {"localId": "montevideo-L036", "lat": -34.9129139, "lon": -56.1895418999999, "nombre": "COOPERATIVA VIRAZON", "direccion": "COOPERATIVA VIRAZON-JOSE MARIA ROO 1257 esq. ZELMAR MICHELINI", "nombreNorm": "COOPERATIVA VIRAZON", "localidad": ".", "series": ["AKA"], "circuitos": [96, 97], "habilitados": 791, "ranges": [["AKA", 24608, 25059], ["AKA", 25060, 25491]]}, {"localId": "montevideo-L037", "lat": -34.90763, "lon": -56.19409, "nombre": "CENTRO DE LENGUAS EXTRANJERAS Nº 1", "direccion": "CENTRO DE LENGUAS EXTRANJERAS Nº 1-SORIANO 1014 esq. JULIO HERRERA Y OBES", "nombreNorm": "CENTRO DE LENGUAS EXTRANJERAS Nº 1", "localidad": ".", "series": ["AKA"], "circuitos": [98, 99], "habilitados": 795, "ranges": [["AKA", 25492, 25922], ["AKA", 25923, 26347]]}, {"localId": "montevideo-L038", "lat": -34.9089184, "lon": -56.1926772, "nombre": "E.M.A.D. NUEVA SEDE", "direccion": "E.M.A.D. NUEVA SEDE-CANELONES 1074 esq. PARAGUAY", "nombreNorm": "E.M.A.D. NUEVA SEDE", "localidad": ".", "series": ["AKA"], "circuitos": [100, 101], "habilitados": 791, "ranges": [["AKA", 26348, 26751], ["AKA", 26752, 27152]]}, {"localId": "montevideo-L039", "lat": -34.9092839, "lon": -56.1920574, "nombre": "ESPACIO ESPÍNOLA GÓMEZ", "direccion": "ESPACIO ESPÍNOLA GÓMEZ-PARAGUAY 1176 esq. CANELONES", "nombreNorm": "ESPACIO ESPINOLA GOMEZ", "localidad": ".", "series": ["AKA"], "circuitos": [102, 103], "habilitados": 758, "ranges": [["AKA", 27153, 27556], ["AKA", 27557, 27955]]}, {"localId": "montevideo-L040", "lat": -34.900669, "lon": -56.1831119999999, "nombre": "LICEO Nº 32", "direccion": "LICEO Nº 32-CARLOS ROXLO  1611  esq. PAYSANDÚ", "nombreNorm": "LICEO Nº 32", "localidad": ".", "series": ["AMA"], "circuitos": [113, 114, 115, 116, 117, 118], "habilitados": 2290, "ranges": [["AMA", 1, 4456], ["AMA", 4457, 5369], ["AMA", 5370, 6248], ["AMA", 6249, 6996], ["AMA", 6997, 7613], ["AMA", 7614, 8179]]}, {"localId": "montevideo-L041", "lat": -34.902844, "lon": -56.1815077, "nombre": "COLEGIO NACIONAL JOSÉ PEDRO VARELA", "direccion": "COLEGIO NACIONAL JOSÉ PEDRO VARELA-COLONIA 1637 esq. MINAS", "nombreNorm": "COLEGIO NACIONAL JOSE PEDRO VARELA", "localidad": ".", "series": ["AMA", "AMB", "ANA", "ANB"], "circuitos": [123, 124, 125, 126, 127, 128, 129], "habilitados": 3513, "ranges": [["AMA", 10104, 10545], ["AMA", 10546, 10940], ["AMA", 10941, 11318], ["AMB", 1, 7136], ["AMB", 7137, 8233], ["ANA", 1, 4476], ["ANA", 4477, 6696], ["ANA", 6697, 7611], ["ANB", 1, 8303]]}, {"localId": "montevideo-L042", "lat": -34.9024125, "lon": -56.1853509, "nombre": "ESCUELA Nº 6", "direccion": "ESCUELA Nº 6-AV. URUGUAY 1467 esq. VÁZQUEZ", "nombreNorm": "ESCUELA Nº 6", "localidad": ".", "series": ["AMA"], "circuitos": [119, 120, 121, 122], "habilitados": 1535, "ranges": [["AMA", 8180, 8713], ["AMA", 8714, 9197], ["AMA", 9198, 9673], ["AMA", 9674, 10103]]}, {"localId": "montevideo-L043", "lat": -34.9050863, "lon": -56.1850329, "nombre": "MINISTERIO DE DESARROLLO SOCIAL", "direccion": "MINISTERIO DE DESARROLLO SOCIAL-AV. 18 DE JULIO  1453 esq. DR. JAVIER BARRIOS AMORÍN", "nombreNorm": "MINISTERIO DE DESARROLLO SOCIAL", "localidad": ".", "series": ["ANB"], "circuitos": [130, 131], "habilitados": 798, "ranges": [["ANB", 8304, 10881], ["ANB", 10882, 13225]]}, {"localId": "montevideo-L044", "lat": -34.9059567, "lon": -56.1831605, "nombre": "FACULTAD DE CIENCIAS SOCIALES", "direccion": "FACULTAD DE CIENCIAS SOCIALES-CONSTITUYENTE 1502 esq. ANDRÉS MARTÍNEZ TRUEBA", "nombreNorm": "FACULTAD DE CIENCIAS SOCIALES", "localidad": ".", "series": ["AOA", "AOB"], "circuitos": [132, 133, 134], "habilitados": 1352, "ranges": [["AOA", 1, 6527], ["AOA", 6528, 8173], ["AOA", 8174, 8764], ["AOB", 1, 5757]]}, {"localId": "montevideo-L045", "lat": -34.9074005, "lon": -56.1797601, "nombre": "ESPACIO CANDI", "direccion": "ESPACIO CANDI-MINAS 1219 esq. SORIANO", "nombreNorm": "ESPACIO CANDI", "localidad": ".", "series": ["AOB"], "circuitos": [135, 136], "habilitados": 681, "ranges": [["AOB", 5758, 7555], ["AOB", 7556, 8718]]}, {"localId": "montevideo-L046", "lat": -34.9073039, "lon": -56.1832389, "nombre": "COLEGIO SEMINARIO", "direccion": "COLEGIO SEMINARIO - BACHILLERATO-ANDRÉS MARTÍNEZ TRUEBA 1227 esq. SORIANO", "nombreNorm": "COLEGIO SEMINARIO", "localidad": ".", "series": ["APA"], "circuitos": [137, 138, 139, 140, 141, 142], "habilitados": 2399, "ranges": [["APA", 1, 9501], ["APA", 9502, 10805], ["APA", 10806, 11928], ["APA", 11929, 12848], ["APA", 12849, 13633], ["APA", 13634, 14412]]}, {"localId": "montevideo-L047", "lat": -34.9091905, "lon": -56.1813642, "nombre": "ESCUELA DE ARTE Y ARTESANÍAS PEDRO FIGARI", "direccion": "ESCUELA DE ARTE Y ARTESANÍAS PEDRO FIGARI-PEATONAL NTRA. SRA. DE LA ENCINA 1554 esq. SALTO", "nombreNorm": "ESCUELA DE ARTE Y ARTESANIAS PEDRO FIGARI", "localidad": ".", "series": ["APA", "APB"], "circuitos": [157, 158], "habilitados": 717, "ranges": [["APA", 21311, 21706], ["APB", 1, 7899]]}, {"localId": "montevideo-L048", "lat": -34.907728, "lon": -56.1829756, "nombre": "SEMINARIO", "direccion": "SEMINARIO - EDIFICIO MONTSERRAT-ANDRÉS MARTÍNEZ TRUEBA 1214 esq. CANELONES", "nombreNorm": "SEMINARIO", "localidad": ".", "series": ["APA"], "circuitos": [143, 144], "habilitados": 804, "ranges": [["APA", 14413, 15047], ["APA", 15048, 15698]]}, {"localId": "montevideo-L049", "lat": -34.9080226, "lon": -56.1834608, "nombre": "COLEGIO SEMINARIO", "direccion": "COLEGIO SEMINARIO - PRIMARIA-CANELONES  1471 esq. DR. JAVIER BARRIOS AMORÍN", "nombreNorm": "COLEGIO SEMINARIO", "localidad": ".", "series": ["APA"], "circuitos": [145, 146, 147, 148, 149, 150, 151, 152], "habilitados": 3206, "ranges": [["APA", 15699, 16274], ["APA", 16275, 16810], ["APA", 16811, 17352], ["APA", 17353, 17850], ["APA", 17851, 18308], ["APA", 18309, 18768], ["APA", 18769, 19211], ["APA", 19212, 19645]]}, {"localId": "montevideo-L050", "lat": -34.9072987, "lon": -56.1802798, "nombre": "INSTITUTOS NORMALES MARÍA STAGNERO DE MUNAR", "direccion": "INSTITUTOS NORMALES MARÍA STAGNERO DE MUNAR - IINN-SORIANO   1658 esq. MINAS", "nombreNorm": "INSTITUTOS NORMALES MARIA STAGNERO DE MUNAR", "localidad": ".", "series": ["APA"], "circuitos": [153, 154, 155, 156], "habilitados": 1581, "ranges": [["APA", 19646, 20080], ["APA", 20081, 20501], ["APA", 20502, 20905], ["APA", 20906, 21310]]}, {"localId": "montevideo-L051", "lat": -34.9098003, "lon": -56.1812483, "nombre": "ESCUELA DE INDUSTRIAS GRÁFICAS", "direccion": "ESCUELA DE INDUSTRIAS GRÁFICAS-DURAZNO 1577 esq. SALTO", "nombreNorm": "ESCUELA DE INDUSTRIAS GRAFICAS", "localidad": ".", "series": ["APB"], "circuitos": [159, 160], "habilitados": 683, "ranges": [["APB", 7900, 9529], ["APB", 9530, 10584]]}, {"localId": "montevideo-L052", "lat": -34.912268, "lon": -56.1731886, "nombre": "FACULTAD DE CIENCIAS ECONÓMICAS Y DE ADMINISTRACIÓN", "direccion": "FACULTAD DE CIENCIAS ECONÓMICAS Y DE ADMINISTRACIÓN - CENTRAL-AV. GONZALO RAMÍREZ 1926 esq. EDUARDO ACEVEDO", "nombreNorm": "FACULTAD DE CIENCIAS ECONOMICAS Y DE ADMINISTRACION", "localidad": ".", "series": ["AQA", "AQB", "ARA"], "circuitos": [161, 162, 163, 164, 165, 166, 167, 174, 175, 176, 177, 178, 179, 180, 181], "habilitados": 5893, "ranges": [["AQA", 1, 10902], ["AQA", 10903, 12583], ["AQA", 12584, 14162], ["AQA", 14163, 15426], ["AQA", 15427, 16519], ["AQB", 1, 6268], ["AQB", 6269, 7854], ["ARA", 16131, 16994], ["ARA", 16995, 17810], ["ARA", 17811, 18617], ["ARA", 18618, 19335], ["ARA", 19336, 20107], ["ARA", 20108, 20770], ["ARA", 20771, 21342], ["ARA", 21343, 21914]]}, {"localId": "montevideo-L053", "lat": -34.9112256, "lon": -56.1730513, "nombre": "FACULTAD DE INFORMACIÓN Y COMUNICACIÓN", "direccion": "FACULTAD DE INFORMACIÓN Y COMUNICACIÓN-SAN SALVADOR 1944 esq. JUAN D. JACKSON", "nombreNorm": "FACULTAD DE INFORMACION Y COMUNICACION", "localidad": ".", "series": ["AQB", "ARA"], "circuitos": [168, 169, 170, 171, 172, 173], "habilitados": 2422, "ranges": [["AQB", 7855, 9013], ["ARA", 1, 10777], ["ARA", 10778, 12347], ["ARA", 12348, 13814], ["ARA", 13815, 14987], ["ARA", 14988, 16130]]}, {"localId": "montevideo-L054", "lat": -34.9070734, "lon": -56.1699317, "nombre": "ESCUELA Nº 4", "direccion": "ESCUELA Nº 4 -CANELONES 2095 esq. DR. JOAQUÍN DE SALTERAIN", "nombreNorm": "ESCUELA Nº 4", "localidad": ".", "series": ["ARA"], "circuitos": [182, 183, 184], "habilitados": 1220, "ranges": [["ARA", 21915, 22530], ["ARA", 22531, 23066], ["ARA", 23067, 23587]]}, {"localId": "montevideo-L055", "lat": -34.9009993, "lon": -56.1740208, "nombre": "GIMNASIO TALLERES DON BOSCO", "direccion": "GIMNASIO TALLERES DON BOSCO-MALDONADO 2128 esq. DR. JOAQUIN REQUENA", "nombreNorm": "GIMNASIO TALLERES DON BOSCO", "localidad": ".", "series": ["ARA", "BBA"], "circuitos": [185, 186, 187, 188, 189, 190, 197, 198, 199, 200, 624, 625, 626], "habilitados": 5262, "ranges": [["ARA", 23588, 24118], ["ARA", 24119, 24674], ["ARA", 24675, 25217], ["ARA", 25218, 25713], ["ARA", 25714, 26205], ["ARA", 26206, 26677], ["ARA", 29356, 29787], ["ARA", 29788, 30203], ["ARA", 30204, 30619], ["ARA", 30620, 31031], ["BBA", 51729, 52243], ["BBA", 52244, 52770], ["BBA", 52771, 53290]]}, {"localId": "montevideo-L056", "lat": -34.9094535, "lon": -56.1685641, "nombre": "LICEO Nº 4", "direccion": "LICEO Nº 4 -DURAZNO   2116 esq. REQUENA", "nombreNorm": "LICEO Nº 4", "localidad": ".", "series": ["ARA"], "circuitos": [191, 192, 193, 194, 195, 196], "habilitados": 2439, "ranges": [["ARA", 26678, 27161], ["ARA", 27162, 27607], ["ARA", 27608, 28045], ["ARA", 28046, 28477], ["ARA", 28478, 28915], ["ARA", 28916, 29355]]}, {"localId": "montevideo-L057", "lat": -34.9119909, "lon": -56.1705663, "nombre": "PREUNIVERSITARIO SAN FELIPE Y SANTIAGO", "direccion": "PREUNIVERSITARIO SAN FELIPE Y SANTIAGO-DR. PABLO DE MARÍA 929 esq. AV. GONZALO RAMÍREZ", "nombreNorm": "PREUNIVERSITARIO SAN FELIPE Y SANTIAGO", "localidad": ".", "series": ["ARA"], "circuitos": [201, 202], "habilitados": 768, "ranges": [["ARA", 31032, 31439], ["ARA", 31440, 31847]]}, {"localId": "montevideo-L058", "lat": -34.9104683, "lon": -56.1692163, "nombre": "LICEO Nº 5", "direccion": "LICEO Nº 5-CABO POLONIO  2107 esq. DR. JOAQUÍN DE SALTERAIN", "nombreNorm": "LICEO Nº 5", "localidad": ".", "series": ["ARB"], "circuitos": [203, 204, 205, 206], "habilitados": 1570, "ranges": [["ARB", 1, 11252], ["ARB", 11253, 13037], ["ARB", 13038, 14556], ["ARB", 14557, 15851]]}, {"localId": "montevideo-L059", "lat": -34.9017563, "lon": -56.1760004, "nombre": "I.N.J.U.", "direccion": "I.N.J.U.-AV. 18 DE JULIO 1865 esq. EDUARDO ACEVEDO", "nombreNorm": "I.N.J.U.", "localidad": ".", "series": ["ASA"], "circuitos": [207, 208, 209], "habilitados": 1189, "ranges": [["ASA", 1, 12175], ["ASA", 12176, 13792], ["ASA", 13793, 15307]]}, {"localId": "montevideo-L060", "lat": -34.901043, "lon": -56.176327, "nombre": "ASOCIACIÓN CRISTIANA DE JÓVENES", "direccion": "ASOCIACIÓN CRISTIANA DE JÓVENES-COLONIA 1870 esq. EDUARDO ACEVEDO", "nombreNorm": "ASOCIACION CRISTIANA DE JOVENES", "localidad": ".", "series": ["ASA"], "circuitos": [210, 211, 212], "habilitados": 1183, "ranges": [["ASA", 15308, 16413], ["ASA", 16414, 17370], ["ASA", 17371, 18232]]}, {"localId": "montevideo-L061", "lat": -34.9010955, "lon": -56.1788685999999, "nombre": "ANEXO COLEGIO Y LICEO JUAN XXIII", "direccion": "ANEXO COLEGIO Y LICEO JUAN XXIII-MERCEDES 1776 esq. GABOTO", "nombreNorm": "ANEXO COLEGIO Y LICEO JUAN XXIII", "localidad": ".", "series": ["ASA"], "circuitos": [213], "habilitados": 397, "ranges": [["ASA", 18233, 18993]]}, {"localId": "montevideo-L062", "lat": -34.9009012, "lon": -56.179283, "nombre": "COLEGIO Y LICEO JUAN XXIII", "direccion": "COLEGIO Y LICEO JUAN XXIII-MERCEDES 1769 esq. GABOTO", "nombreNorm": "COLEGIO Y LICEO JUAN XXIII", "localidad": ".", "series": ["ASA"], "circuitos": [214, 215], "habilitados": 791, "ranges": [["ASA", 18994, 19601], ["ASA", 19602, 20184]]}, {"localId": "montevideo-L063", "lat": -34.8997286, "lon": -56.1786505, "nombre": "FACULTAD DE PSICOLOGÍA", "direccion": "FACULTAD DE PSICOLOGÍA-AV. URUGUAY 1821 esq. TRISTÁN NARVAJA", "nombreNorm": "FACULTAD DE PSICOLOGIA", "localidad": ".", "series": ["ASA"], "circuitos": [216, 217, 218, 219, 220], "habilitados": 1982, "ranges": [["ASA", 20185, 20761], ["ASA", 20762, 21288], ["ASA", 21289, 21768], ["ASA", 21769, 22210], ["ASA", 22211, 22654]]}, {"localId": "montevideo-L064", "lat": -34.8987436, "lon": -56.1773092, "nombre": "ESCUELA Nº 209", "direccion": "ESCUELA Nº 209-AV. FERNÁNDEZ CRESPO 1722 esq. AV. URUGUAY", "nombreNorm": "ESCUELA Nº 209", "localidad": ".", "series": ["ASA"], "circuitos": [221, 222], "habilitados": 765, "ranges": [["ASA", 22655, 23063], ["ASA", 23064, 23454]]}, {"localId": "montevideo-L065", "lat": -34.8950021, "lon": -56.1784336, "nombre": "ESCUELA Nº 61", "direccion": "ESCUELA Nº 61 -LA PAZ 2184 esq. DR. MARTÍN C. MARTÍNEZ", "nombreNorm": "ESCUELA Nº 61", "localidad": ".", "series": ["ASB"], "circuitos": [223, 224, 225], "habilitados": 956, "ranges": [["ASB", 1, 11072], ["ASB", 11073, 12529], ["ASB", 12530, 13495]]}, {"localId": "montevideo-L066", "lat": -34.8975756, "lon": -56.1686904, "nombre": "CLUB BANCO HIPOTECARIO", "direccion": "CLUB BANCO HIPOTECARIO-COLONIA 2189 esq. DR. JUAN PAULLIER", "nombreNorm": "CLUB BANCO HIPOTECARIO", "localidad": ".", "series": ["ATA"], "circuitos": [226, 227, 228, 229], "habilitados": 1597, "ranges": [["ATA", 1, 7310], ["ATA", 7311, 8693], ["ATA", 8694, 9800], ["ATA", 9801, 10640]]}, {"localId": "montevideo-L067", "lat": -34.896874, "lon": -56.1700347, "nombre": "BIBLIOTECA POPULAR JOSÉ MOROSOLI", "direccion": "BIBLIOTECA POPULAR JOSÉ MOROSOLI-EDUARDO VÍCTOR HAEDO S/N esq. DR. MARTÍN C. MARTÍNEZ", "nombreNorm": "BIBLIOTECA POPULAR JOSE MOROSOLI", "localidad": ".", "series": ["ATA"], "circuitos": [230], "habilitados": 401, "ranges": [["ATA", 10641, 11269]]}, {"localId": "montevideo-L068", "lat": -34.899223, "lon": -56.168117, "nombre": "LICEO Nº 27", "direccion": "LICEO Nº 27 - Nº 34 -AV. 18 DE JULIO  2205  esq. ALEJANDRO BEISSO", "nombreNorm": "LICEO Nº 27", "localidad": ".", "series": ["ATA"], "circuitos": [231, 232, 233], "habilitados": 1201, "ranges": [["ATA", 11270, 11816], ["ATA", 11817, 12319], ["ATA", 12320, 12763]]}, {"localId": "montevideo-L069", "lat": -34.8959806, "lon": -56.1654566, "nombre": "MISIÓN VIDA PARA LAS NACIONES", "direccion": "MISIÓN VIDA PARA LAS NACIONES-AV. 8 DE OCTUBRE  2335  esq. BV. GRAL. ARTIGAS", "nombreNorm": "MISION VIDA PARA LAS NACIONES", "localidad": ".", "series": ["ATA"], "circuitos": [234, 235], "habilitados": 784, "ranges": [["ATA", 12764, 13199], ["ATA", 13200, 13602]]}, {"localId": "montevideo-L070", "lat": -34.8903903, "lon": -56.1604757, "nombre": "FUNDACIÓN LOGOSÓFICA", "direccion": "FUNDACIÓN LOGOSÓFICA-AV. 8 DE OCTUBRE 2662 esq. AV. GRAL. GARIBALDI", "nombreNorm": "FUNDACION LOGOSOFICA", "localidad": ".", "series": ["ATB"], "circuitos": [236], "habilitados": 371, "ranges": [["ATB", 1, 8627]]}, {"localId": "montevideo-L071", "lat": -34.8903805, "lon": -56.160117, "nombre": "ESCUELA LOGOSÓFICA", "direccion": "ESCUELA LOGOSÓFICA-AV. DR. MANUEL ALBO 2729 esq. AV. 8 DE OCTUBRE", "nombreNorm": "ESCUELA LOGOSOFICA", "localidad": ".", "series": ["ATB"], "circuitos": [237, 238, 239, 240], "habilitados": 1495, "ranges": [["ATB", 8628, 10113], ["ATB", 10114, 11231], ["ATB", 11232, 12190], ["ATB", 12191, 12968]]}, {"localId": "montevideo-L072", "lat": -34.89068, "lon": -56.1597751, "nombre": "LICEO LOGOSÓFICO", "direccion": "LICEO LOGOSÓFICO-AV. DR. MANUEL ALBO 2707 esq. GERARDO GRASSO", "nombreNorm": "LICEO LOGOSOFICO", "localidad": ".", "series": ["ATB"], "circuitos": [241, 242, 243, 244], "habilitados": 1494, "ranges": [["ATB", 12969, 13599], ["ATB", 13600, 14116], ["ATB", 14117, 14584], ["ATB", 14585, 15011]]}, {"localId": "montevideo-L073", "lat": -34.8916047, "lon": -56.160243, "nombre": "BACHILLERATO LOGOSÓFICO", "direccion": "BACHILLERATO LOGOSÓFICO-GERARDO GRASSO  2620 esq. AV. DR. MANUEL ALBO", "nombreNorm": "BACHILLERATO LOGOSOFICO", "localidad": ".", "series": ["ATB"], "circuitos": [245, 246], "habilitados": 716, "ranges": [["ATB", 15012, 15423], ["ATB", 15424, 15796]]}, {"localId": "montevideo-L074", "lat": -34.8875485, "lon": -56.1541554, "nombre": "LICEO Nº 3", "direccion": "LICEO Nº 3-JAIME CIBILS  2878  esq. AV. CENTENARIO", "nombreNorm": "LICEO Nº 3", "localidad": ".", "series": ["AUA"], "circuitos": [247, 248, 249, 250], "habilitados": 1617, "ranges": [["AUA", 1, 10336], ["AUA", 10337, 12515], ["AUA", 12516, 14153], ["AUA", 14154, 15585]]}, {"localId": "montevideo-L075", "lat": -34.8795736, "lon": -56.1575081, "nombre": "INSTITUTO CRANDON INICIAL Y PRIMARIA", "direccion": "INSTITUTO CRANDON INICIAL Y PRIMARIA-JUAN RAMÓN GÓMEZ   2706 esq. AV. GRAL. JOSÉ GARIBALDI", "nombreNorm": "INSTITUTO CRANDON INICIAL Y PRIMARIA", "localidad": ".", "series": ["AUA"], "circuitos": [251, 252, 253, 254, 255, 256], "habilitados": 2435, "ranges": [["AUA", 15586, 16713], ["AUA", 16714, 17894], ["AUA", 17895, 19020], ["AUA", 19021, 19962], ["AUA", 19963, 20797], ["AUA", 20798, 21522]]}, {"localId": "montevideo-L076", "lat": -34.8820199, "lon": -56.1524108, "nombre": "UNIVERSIDAD CATÓLICA", "direccion": "UNIVERSIDAD CATÓLICA-CORNELIO CANTERA 2731 esq. ESTERO BELLACO", "nombreNorm": "UNIVERSIDAD CATOLICA", "localidad": ".", "series": ["AUA"], "circuitos": [257, 258, 259, 260, 261, 262, 263, 264], "habilitados": 3220, "ranges": [["AUA", 21523, 22183], ["AUA", 22184, 22752], ["AUA", 22753, 23261], ["AUA", 23262, 23754], ["AUA", 23755, 24204], ["AUA", 24205, 24635], ["AUA", 24636, 25057], ["AUA", 25058, 25467]]}, {"localId": "montevideo-L077", "lat": -34.8851051, "lon": -56.1562546, "nombre": "COLEGIO SANTA MARÍA", "direccion": "COLEGIO SANTA MARÍA-AV. 8 DE OCTUBRE 2966 esq. JAIME CIBILS", "nombreNorm": "COLEGIO SANTA MARIA", "localidad": ".", "series": ["AUB"], "circuitos": [265, 266, 267, 268, 269, 270, 271, 272], "habilitados": 3081, "ranges": [["AUB", 1, 7100], ["AUB", 7101, 8645], ["AUB", 8646, 9684], ["AUB", 9685, 10902], ["AUB", 10903, 11777], ["AUB", 11778, 12669], ["AUB", 12670, 13433], ["AUB", 13434, 14139]]}, {"localId": "montevideo-L078", "lat": -34.881766, "lon": -56.1561605, "nombre": "ESCUELA Nº 197", "direccion": "ESCUELA Nº 197 -MARIANO MORENO  2697 esq. GRAL. URQUIZA", "nombreNorm": "ESCUELA Nº 197", "localidad": ".", "series": ["AUB"], "circuitos": [273, 274, 275, 276], "habilitados": 1546, "ranges": [["AUB", 14140, 14716], ["AUB", 14717, 15213], ["AUB", 15214, 15705], ["AUB", 15706, 16171]]}, {"localId": "montevideo-L079", "lat": -34.8812228, "lon": -56.155785, "nombre": "ESCUELA Nº 231", "direccion": "ESCUELA Nº 231 -JUAN RAMÓN GÓMEZ 3082 esq. MARIANO MORENO", "nombreNorm": "ESCUELA Nº 231", "localidad": ".", "series": ["AUB"], "circuitos": [277, 278, 279, 280], "habilitados": 1518, "ranges": [["AUB", 16172, 16606], ["AUB", 16607, 17012], ["AUB", 17013, 17405], ["AUB", 17406, 17784]]}, {"localId": "montevideo-L080", "lat": -34.8908181, "lon": -56.1613837, "nombre": "COLEGIO INGLÉS PRIMARIA", "direccion": "COLEGIO INGLÉS PRIMARIA-FELICIANO RODRÍGUEZ 2778 esq. ALARCÓN", "nombreNorm": "COLEGIO INGLES PRIMARIA", "localidad": ".", "series": ["AVA", "AZA"], "circuitos": [281, 282, 283, 425, 426, 427, 428], "habilitados": 2804, "ranges": [["AVA", 1, 12702], ["AVA", 12703, 15936], ["AVA", 15937, 17457], ["AZA", 36474, 37226], ["AZA", 37227, 38528], ["AZA", 38529, 39212], ["AZA", 39213, 39971]]}, {"localId": "montevideo-L081", "lat": -34.9019869, "lon": -56.164279, "nombre": "SAINT BRENDAN'S SCHOOL", "direccion": "SAINT BRENDAN'S SCHOOL-AV. GRAL. RIVERA 2314 esq. DR. MARIO CASSINONI", "nombreNorm": "SAINT BRENDAN'S SCHOOL", "localidad": ".", "series": ["AVA"], "circuitos": [284, 285], "habilitados": 796, "ranges": [["AVA", 17458, 18578], ["AVA", 18579, 20083]]}, {"localId": "montevideo-L082", "lat": -34.8994287, "lon": -56.1691387, "nombre": "INSTITUTO DE FORMACIÓN EN EDUCACIÓN SOCIAL", "direccion": "INSTITUTO DE FORMACIÓN EN EDUCACIÓN SOCIAL - I.F.E.S.-AV. 18 DE JULIO  2128 esq. DR. JUAN PAULLIER", "nombreNorm": "INSTITUTO DE FORMACION EN EDUCACION SOCIAL", "localidad": ".", "series": ["AVA"], "circuitos": [286, 287, 288, 289], "habilitados": 1591, "ranges": [["AVA", 20084, 21342], ["AVA", 21343, 22680], ["AVA", 22681, 23473], ["AVA", 23474, 24571]]}, {"localId": "montevideo-L083", "lat": -34.909834, "lon": -56.1637796, "nombre": "FACULTAD DE ARQUITECTURA", "direccion": "FACULTAD DE ARQUITECTURA-BV. GRAL. ARTIGAS 1031 esq. BV. ESPAÑA", "nombreNorm": "FACULTAD DE ARQUITECTURA", "localidad": ".", "series": ["AVA"], "circuitos": [290, 291, 292, 293, 294, 295, 296, 297, 298, 299, 300, 301, 302], "habilitados": 5178, "ranges": [["AVA", 24572, 25388], ["AVA", 25389, 26213], ["AVA", 26214, 26944], ["AVA", 26945, 27597], ["AVA", 27598, 28181], ["AVA", 28182, 28754], ["AVA", 28755, 29272], ["AVA", 29273, 29788], ["AVA", 29789, 30280], ["AVA", 30281, 30733], ["AVA", 30734, 31191], ["AVA", 31192, 31630], ["AVA", 31631, 32053]]}, {"localId": "montevideo-L084", "lat": -34.9102509, "lon": -56.1641349, "nombre": "FACULTAD DE INGENIERÍA", "direccion": "FACULTAD DE INGENIERÍA-AV. JULIO HERRERA Y REISSIG S/N esq. SDA. ING. NELSON LANDONI", "nombreNorm": "FACULTAD DE INGENIERIA", "localidad": ".", "series": ["AVA"], "circuitos": [303, 304, 305, 306, 307, 308], "habilitados": 2314, "ranges": [["AVA", 32054, 32480], ["AVA", 32481, 32897], ["AVA", 32898, 33308], ["AVA", 33309, 33712], ["AVA", 33713, 34111], ["AVA", 34112, 34503]]}, {"localId": "montevideo-L085", "lat": -34.91724, "lon": -56.1669142, "nombre": "EDIFICIO POLIFUNCIONAL", "direccion": "EDIFICIO POLIFUNCIONAL-SDA. ING. NELSON LANDONI S/N esq. AV. JULIO HERRERA Y REISSIG", "nombreNorm": "EDIFICIO POLIFUNCIONAL", "localidad": ".", "series": ["AVB"], "circuitos": [309, 310, 311, 312, 313, 314, 315, 316], "habilitados": 3142, "ranges": [["AVB", 1, 5247], ["AVB", 5248, 6447], ["AVB", 6448, 7623], ["AVB", 7624, 8608], ["AVB", 8609, 9344], ["AVB", 9345, 9990], ["AVB", 9991, 10544], ["AVB", 10545, 11093]]}, {"localId": "montevideo-L086", "lat": -34.9207665, "lon": -56.1618314, "nombre": "SAINT BRENDAN'S SCHOOL", "direccion": "SAINT BRENDAN'S SCHOOL - PRIMARIA-BV. GRAL. ARTIGAS 444 esq. LUIS DE LA TORRE", "nombreNorm": "SAINT BRENDAN'S SCHOOL", "localidad": ".", "series": ["AXA"], "circuitos": [317, 318, 319], "habilitados": 1201, "ranges": [["AXA", 1, 12676], ["AXA", 12677, 16183], ["AXA", 16184, 17677]]}, {"localId": "montevideo-L087", "lat": -34.9206884, "lon": -56.1608171, "nombre": "SAINT BRENDAN'S SCHOOL", "direccion": "SAINT BRENDAN'S SCHOOL-JOAQUÍN NÚÑEZ 2784 esq. LUIS DE LA TORRE", "nombreNorm": "SAINT BRENDAN'S SCHOOL", "localidad": ".", "series": ["AXA"], "circuitos": [320, 321, 322, 323, 324], "habilitados": 2012, "ranges": [["AXA", 17678, 19045], ["AXA", 19046, 19973], ["AXA", 19974, 20994], ["AXA", 20995, 22366], ["AXA", 22367, 23270]]}, {"localId": "montevideo-L088", "lat": -34.9203017, "lon": -56.1569869, "nombre": "COLEGIO ZORRILLA DE SAN MARTÍN", "direccion": "COLEGIO ZORRILLA DE SAN MARTÍN-JOSÉ ELLAURI  527  esq. GRAL. GREGORIO SUÁREZ", "nombreNorm": "COLEGIO ZORRILLA DE SAN MARTIN", "localidad": ".", "series": ["AXA"], "circuitos": [325, 326, 327, 328, 329, 330, 331], "habilitados": 2824, "ranges": [["AXA", 23271, 24436], ["AXA", 24437, 25127], ["AXA", 25128, 25987], ["AXA", 25988, 26857], ["AXA", 26858, 27583], ["AXA", 27584, 28362], ["AXA", 28363, 29091]]}, {"localId": "montevideo-L089", "lat": -34.9197394, "lon": -56.1568576, "nombre": "ESCUELA Nº 39", "direccion": "ESCUELA Nº 39 - Nº 273-JOSÉ ELLAURI  603  esq. 21 DE SETIEMBRE", "nombreNorm": "ESCUELA Nº 39", "localidad": ".", "series": ["AXA"], "circuitos": [332, 333, 334, 335, 336, 337], "habilitados": 2419, "ranges": [["AXA", 29092, 29735], ["AXA", 29736, 30373], ["AXA", 30374, 31006], ["AXA", 31007, 31670], ["AXA", 31671, 32234], ["AXA", 32235, 32776]]}, {"localId": "montevideo-L090", "lat": -34.9166859, "lon": -56.1614878, "nombre": "COLEGIO Y LICEO LATINOAMERICANO", "direccion": "COLEGIO Y LICEO LATINOAMERICANO-ECHEVERRÍA  532 esq. IBIRAY", "nombreNorm": "COLEGIO Y LICEO LATINOAMERICANO", "localidad": ".", "series": ["AXA"], "circuitos": [338, 339, 340, 341, 342, 343], "habilitados": 2417, "ranges": [["AXA", 32777, 33329], ["AXA", 33330, 33834], ["AXA", 33835, 34374], ["AXA", 34375, 34887], ["AXA", 34888, 35370], ["AXA", 35371, 35869]]}, {"localId": "montevideo-L091", "lat": -34.9160099, "lon": -56.160726, "nombre": "ESCUELA Nº 3", "direccion": "ESCUELA Nº 3 - Nº 121 -ECHEVERRÍA  588 esq. 21 DE SETIEMBRE", "nombreNorm": "ESCUELA Nº 3", "localidad": ".", "series": ["AXA"], "circuitos": [344, 345, 346, 347], "habilitados": 1614, "ranges": [["AXA", 35870, 36369], ["AXA", 36370, 36893], ["AXA", 36894, 37372], ["AXA", 37373, 37828]]}, {"localId": "montevideo-L092", "lat": -34.9126764, "lon": -56.1570328, "nombre": "O.R.T. ARQUITECTURA", "direccion": "O.R.T. ARQUITECTURA-BV. ESPAÑA 2627 esq. ENRIQUE MUÑOZ", "nombreNorm": "O.R.T. ARQUITECTURA", "localidad": ".", "series": ["AXA"], "circuitos": [348, 349], "habilitados": 807, "ranges": [["AXA", 37829, 38280], ["AXA", 38281, 38733]]}, {"localId": "montevideo-L093", "lat": -34.9122687, "lon": -56.1566419, "nombre": "O.R.T. FACULTAD DE ADMINISTRACIÓN Y CIENCIAS SOCIALES", "direccion": "O.R.T. FACULTAD DE ADMINISTRACIÓN Y CIENCIAS SOCIALES-JOSÉ BENITO LAMAS 2780 esq. LUIS DE LA TORRE", "nombreNorm": "O.R.T. FACULTAD DE ADMINISTRACION Y CIENCIAS SOCIALES", "localidad": ".", "series": ["AXA"], "circuitos": [350], "habilitados": 404, "ranges": [["AXA", 38734, 39190]]}, {"localId": "montevideo-L094", "lat": -34.9095703, "lon": -56.1551507, "nombre": "COLEGIO QUEENS", "direccion": "COLEGIO QUEENS - PRIMARIA-LUIS CAVIA 2779 esq. LIBERTAD", "nombreNorm": "COLEGIO QUEENS", "localidad": ".", "series": ["AXA"], "circuitos": [351, 352, 353, 354], "habilitados": 1616, "ranges": [["AXA", 39191, 39612], ["AXA", 39613, 40038], ["AXA", 40039, 40453], ["AXA", 40454, 40870]]}, {"localId": "montevideo-L095", "lat": -34.8968513, "lon": -56.1443667, "nombre": "COLEGIO JEAN PIAGET", "direccion": "COLEGIO JEAN PIAGET-AV. BRASIL 2585 esq. JOSE ZUBILLAGA", "nombreNorm": "COLEGIO JEAN PIAGET", "localidad": ".", "series": ["AXA"], "circuitos": [355, 356, 357], "habilitados": 1209, "ranges": [["AXA", 40871, 41291], ["AXA", 41292, 41703], ["AXA", 41704, 42110]]}, {"localId": "montevideo-L096", "lat": -34.9072559, "lon": -56.1586967, "nombre": "CLUB DE RESIDENTES DE RIVERA", "direccion": "CLUB DE RESIDENTES DE RIVERA-AV. BRASIL 2532 esq. GRAL. BRITO DEL PINO", "nombreNorm": "CLUB DE RESIDENTES DE RIVERA", "localidad": ".", "series": ["AXA"], "circuitos": [358, 359, 360], "habilitados": 1116, "ranges": [["AXA", 42111, 42517], ["AXA", 42518, 42922], ["AXA", 42923, 43310]]}, {"localId": "montevideo-L097", "lat": -34.9262407, "lon": -56.1612309, "nombre": "PARVA DOMUS MAGNA QUIES", "direccion": "PARVA DOMUS MAGNA QUIES-BV. ARTIGAS  136 esq. PARVA DOMUS", "nombreNorm": "PARVA DOMUS MAGNA QUIES", "localidad": ".", "series": ["AXB"], "circuitos": [361, 362, 363, 364, 365, 366], "habilitados": 2406, "ranges": [["AXB", 1, 9958], ["AXB", 9959, 12990], ["AXB", 12991, 14488], ["AXB", 14489, 15800], ["AXB", 15801, 17048], ["AXB", 17049, 17942]]}, {"localId": "montevideo-L098", "lat": -34.88627, "lon": -56.058365, "nombre": "PARROQUIA STELLA MARIS", "direccion": "PARROQUIA STELLA MARIS-AV. AROCENA 1630 esq. DR. GABRIEL OTERO", "nombreNorm": "PARROQUIA STELLA MARIS", "localidad": ".", "series": ["AXB", "BBA", "BCA", "BCD"], "circuitos": [408, 409, 619, 620, 621, 727, 728, 729, 730, 731, 924, 925, 926, 927, 928, 929, 930, 931], "habilitados": 7135, "ranges": [["AXB", 45536, 45939], ["AXB", 45940, 46312], ["BBA", 48895, 49505], ["BBA", 49506, 50072], ["BBA", 50073, 50668], ["BCA", 83193, 84470], ["BCA", 84471, 85411], ["BCA", 85412, 86356], ["BCA", 86357, 87287], ["BCA", 87288, 88289], ["BCD", 16941, 17392], ["BCD", 17393, 17825], ["BCD", 17826, 18255], ["BCD", 18256, 18673], ["BCD", 18674, 19102], ["BCD", 19103, 19515], ["BCD", 19516, 19932], ["BCD", 19933, 20351]]}, {"localId": "montevideo-L099", "lat": -34.924071, "lon": -56.1600358, "nombre": "C.C.Z. Nº 5", "direccion": "C.C.Z. Nº 5-JOSÉ ELLAURI 306 esq. SOLANO GARCÍA", "nombreNorm": "C.C.Z. Nº 5", "localidad": ".", "series": ["AXB"], "circuitos": [367, 368, 369, 370, 371], "habilitados": 2008, "ranges": [["AXB", 17943, 18852], ["AXB", 18853, 19732], ["AXB", 19733, 20725], ["AXB", 20726, 21902], ["AXB", 21903, 23275]]}, {"localId": "montevideo-L100", "lat": -34.9225356, "lon": -56.1589424, "nombre": "PARROQUIA NUESTRA SEÑORA DEL SAGRADO CORAZÓN", "direccion": "PARROQUIA NUESTRA SEÑORA DEL SAGRADO CORAZÓN-JOSÉ ELLAURI 408 esq. SOLANO GARCÍA", "nombreNorm": "PARROQUIA NUESTRA SENORA DEL SAGRADO CORAZON", "localidad": ".", "series": ["AXB"], "circuitos": [372, 373, 374], "habilitados": 1205, "ranges": [["AXB", 23276, 24171], ["AXB", 24172, 25098], ["AXB", 25099, 26166]]}, {"localId": "montevideo-L101", "lat": -34.9244442, "lon": -56.157999, "nombre": "COLEGIO PUNTA CARRETAS", "direccion": "COLEGIO PUNTA CARRETAS-FRANCISCO GARCÍA CORTINAS 2432 esq. JOSÉ ELLAURI", "nombreNorm": "COLEGIO PUNTA CARRETAS", "localidad": ".", "series": ["AXB"], "circuitos": [375, 376, 377, 378, 379, 380], "habilitados": 2410, "ranges": [["AXB", 26167, 27325], ["AXB", 27326, 27984], ["AXB", 27985, 28591], ["AXB", 28592, 29567], ["AXB", 29568, 30568], ["AXB", 30569, 31163]]}, {"localId": "montevideo-L102", "lat": -34.9193073, "lon": -56.1588114, "nombre": "NAUTILUS YACHTING CLUB", "direccion": "NAUTILUS YACHTING CLUB-RBLA. MAHATMA GANDHI  530 esq. DR. JOSÉ MARÍA MONTERO", "nombreNorm": "NAUTILUS YACHTING CLUB", "localidad": ".", "series": ["AXB"], "circuitos": [381], "habilitados": 401, "ranges": [["AXB", 31164, 31866]]}, {"localId": "montevideo-L103", "lat": -34.9156743, "lon": -56.1612585, "nombre": "CLUB BIGUÁ", "direccion": "CLUB BIGUÁ-JOSÉ VÁZQUEZ LEDESMA 2968 esq. TOMÁS DIAGO", "nombreNorm": "CLUB BIGUA", "localidad": ".", "series": ["AXB"], "circuitos": [382, 383, 384, 385], "habilitados": 1610, "ranges": [["AXB", 31867, 32598], ["AXB", 32599, 33390], ["AXB", 33391, 34065], ["AXB", 34066, 34707]]}, {"localId": "montevideo-L104", "lat": -34.9168611, "lon": -56.1513706, "nombre": "IVY THOMAS MEMORIAL", "direccion": "IVY THOMAS MEMORIAL-ROQUE GRASERAS  775  esq. JAIME ZUDÁÑEZ", "nombreNorm": "IVY THOMAS MEMORIAL", "localidad": ".", "series": ["AXB"], "circuitos": [386, 387, 388], "habilitados": 1206, "ranges": [["AXB", 34708, 35344], ["AXB", 35345, 35991], ["AXB", 35992, 36574]]}, {"localId": "montevideo-L105", "lat": -34.915993, "lon": -56.1534637, "nombre": "SAINT DAVID'S SCHOOL", "direccion": "SAINT DAVID'S SCHOOL -PEDRO FRANCISCO BERRO 774 esq. JAIME ZUDÁÑEZ", "nombreNorm": "SAINT DAVID'S SCHOOL", "localidad": ".", "series": ["AXB"], "circuitos": [389, 390, 391], "habilitados": 1208, "ranges": [["AXB", 36575, 37117], ["AXB", 37118, 37643], ["AXB", 37644, 38202]]}, {"localId": "montevideo-L106", "lat": -34.9159072, "lon": -56.1541614, "nombre": "LICEO Nº 7", "direccion": "LICEO Nº 7 -PEDRO FRANCISCO BERRO  773  esq. JAIME ZUDÁÑEZ", "nombreNorm": "LICEO Nº 7", "localidad": ".", "series": ["AXB"], "circuitos": [392, 393, 394, 395, 396, 397, 398, 399, 400], "habilitados": 3620, "ranges": [["AXB", 38203, 38722], ["AXB", 38723, 39235], ["AXB", 39236, 39754], ["AXB", 39755, 40269], ["AXB", 40270, 40775], ["AXB", 40776, 41256], ["AXB", 41257, 41709], ["AXB", 41710, 42163], ["AXB", 42164, 42625]]}, {"localId": "montevideo-L107", "lat": -34.915492, "lon": -56.1538126, "nombre": "LICEO Nº 7", "direccion": "LICEO Nº 7 - GIMNASIO -JAIME ZUDÁÑEZ   2730  esq. PEDRO FRANCISCO BERRO", "nombreNorm": "LICEO Nº 7", "localidad": ".", "series": ["AXB"], "circuitos": [401, 402, 403, 404], "habilitados": 1610, "ranges": [["AXB", 42626, 43043], ["AXB", 43044, 43460], ["AXB", 43461, 43877], ["AXB", 43878, 44309]]}, {"localId": "montevideo-L108", "lat": -34.9178263, "lon": -56.1627803, "nombre": "LICEO Nº 28", "direccion": "LICEO Nº 28-BV. ESPAÑA  2772  esq. JOSÉ ELLAURI", "nombreNorm": "LICEO Nº 28", "localidad": ".", "series": ["AXB"], "circuitos": [405, 406, 407], "habilitados": 1194, "ranges": [["AXB", 44310, 44723], ["AXB", 44724, 45131], ["AXB", 45132, 45535]]}, {"localId": "montevideo-L109", "lat": -34.8991973, "lon": -56.1552298999999, "nombre": "LICEO Nº 12", "direccion": "LICEO Nº 12-AV. DR. AMÉRICO RICALDONI  2804  esq. GRAL. BRITO DEL PINO", "nombreNorm": "LICEO Nº 12", "localidad": ".", "series": ["AZA"], "circuitos": [410, 411, 412, 413], "habilitados": 1605, "ranges": [["AZA", 1, 17344], ["AZA", 17345, 20065], ["AZA", 20066, 22242], ["AZA", 22243, 23869]]}, {"localId": "montevideo-L110", "lat": -34.8990955, "lon": -56.154373, "nombre": "COLEGIO INGLES (NIVEL 4 Y 5)", "direccion": "COLEGIO INGLES (NIVEL 4 Y 5)-AV. DR. AMÉRICO RICALDONI 2838 esq. ALARCÓN", "nombreNorm": "COLEGIO INGLES (NIVEL 4 Y 5)", "localidad": ".", "series": ["AZA"], "circuitos": [414, 415, 416], "habilitados": 1212, "ranges": [["AZA", 23870, 25333], ["AZA", 25334, 26543], ["AZA", 26544, 27582]]}, {"localId": "montevideo-L111", "lat": -34.8989447, "lon": -56.1578629, "nombre": "LICEO SAN IGNACIO", "direccion": "LICEO SAN IGNACIO-ALEJO ROSELL Y RIUS  1641  esq. 4 DE JULIO", "nombreNorm": "LICEO SAN IGNACIO", "localidad": ".", "series": ["AZA"], "circuitos": [417, 418, 419, 420, 421, 422, 423, 424], "habilitados": 3241, "ranges": [["AZA", 27583, 28559], ["AZA", 28560, 29935], ["AZA", 29936, 31508], ["AZA", 31509, 32565], ["AZA", 32566, 33533], ["AZA", 33534, 34660], ["AZA", 34661, 35766], ["AZA", 35767, 36473]]}, {"localId": "montevideo-L112", "lat": -34.9016001, "lon": -56.1520759, "nombre": "COLEGIO Y LICEO INGLÉS", "direccion": "COLEGIO Y LICEO INGLÉS-RAFAEL PASTORIZA 1469 esq. CAP. VIDELA", "nombreNorm": "COLEGIO Y LICEO INGLES", "localidad": ".", "series": ["AZA"], "circuitos": [429, 430, 431, 432], "habilitados": 1620, "ranges": [["AZA", 39972, 40714], ["AZA", 40715, 41483], ["AZA", 41484, 42129], ["AZA", 42130, 42827]]}, {"localId": "montevideo-L113", "lat": -34.9029223, "lon": -56.1517194, "nombre": "COLEGIO Y LICEO INGLÉS (PORTÓN DERECHA)", "direccion": "COLEGIO Y LICEO INGLÉS (PORTÓN DERECHA)-RAFAEL PASTORIZA 1469 esq. CAP. VIDELA", "nombreNorm": "COLEGIO Y LICEO INGLES (PORTON DERECHA)", "localidad": ".", "series": ["AZA"], "circuitos": [433, 434, 435, 436], "habilitados": 1622, "ranges": [["AZA", 42828, 43446], ["AZA", 43447, 44053], ["AZA", 44054, 44720], ["AZA", 44721, 45300]]}, {"localId": "montevideo-L114", "lat": -34.9035571, "lon": -56.152766, "nombre": "COLEGIO Y LICEO ALEMÁN", "direccion": "COLEGIO Y LICEO ALEMÁN-GABRIEL PEREIRA 2790 esq. CHARRÚA", "nombreNorm": "COLEGIO Y LICEO ALEMAN", "localidad": ".", "series": ["AZA"], "circuitos": [437, 438], "habilitados": 809, "ranges": [["AZA", 45301, 45813], ["AZA", 45814, 46392]]}, {"localId": "montevideo-L115", "lat": -34.9049364, "lon": -56.155208, "nombre": "COLEGIO Y LICEO ALEMÁN", "direccion": "COLEGIO Y LICEO ALEMÁN-AV. DR. FRANCISCO SOCA 1356 esq. CHARRÚA", "nombreNorm": "COLEGIO Y LICEO ALEMAN", "localidad": ".", "series": ["AZA"], "circuitos": [439, 440, 441, 442], "habilitados": 1621, "ranges": [["AZA", 46393, 46947], ["AZA", 46948, 47446], ["AZA", 47447, 47933], ["AZA", 47934, 48437]]}, {"localId": "montevideo-L116", "lat": -34.9042966, "lon": -56.1574101, "nombre": "COLEGIO Y LICEO NUESTRA SEÑORA DE FÁTIMA", "direccion": "COLEGIO Y LICEO NUESTRA SEÑORA DE FÁTIMA-SILVESTRE BLANCO 2574 esq. GRAL. BRITO DEL PINO", "nombreNorm": "COLEGIO Y LICEO NUESTRA SENORA DE FATIMA", "localidad": ".", "series": ["AZA"], "circuitos": [443, 444, 445, 446], "habilitados": 1621, "ranges": [["AZA", 48438, 48943], ["AZA", 48944, 49445], ["AZA", 49446, 49915], ["AZA", 49916, 50375]]}, {"localId": "montevideo-L117", "lat": -34.903956958, "lon": -56.156313402885466, "nombre": "COLEGIO Y LICEO NUESTRA SEÑORA DE FÁTIMA", "direccion": "COLEGIO Y LICEO NUESTRA SEÑORA DE FÁTIMA-SILVESTRE BLANCO  3150 esq. GRAL. BRITO DEL PINO", "nombreNorm": "COLEGIO Y LICEO NUESTRA SENORA DE FATIMA", "localidad": ".", "series": ["AZA"], "circuitos": [447, 448, 449], "habilitados": 1216, "ranges": [["AZA", 50376, 50830], ["AZA", 50831, 51293], ["AZA", 51294, 51714]]}, {"localId": "montevideo-L118", "lat": -34.9036303, "lon": -56.1594674, "nombre": "ESCUELA Nº 32", "direccion": "ESCUELA Nº 32 - Nº 83-SIMÓN BOLÍVAR   1361 esq. AV. GRAL. RIVERA", "nombreNorm": "ESCUELA Nº 32", "localidad": ".", "series": ["AZA"], "circuitos": [450, 451, 452, 453], "habilitados": 1623, "ranges": [["AZA", 51715, 52138], ["AZA", 52139, 52561], ["AZA", 52562, 52992], ["AZA", 52993, 53421]]}, {"localId": "montevideo-L119", "lat": -34.8968263, "lon": -56.1602424, "nombre": "COLEGIO LOS PILARES", "direccion": "COLEGIO LOS PILARES-LORD PONSOMBY 2480 esq. AV. DR. AMÉRICO RICALDONI", "nombreNorm": "COLEGIO LOS PILARES", "localidad": ".", "series": ["AZA"], "circuitos": [454, 455, 456, 457, 458], "habilitados": 1925, "ranges": [["AZA", 53422, 53836], ["AZA", 53837, 54247], ["AZA", 54248, 54653], ["AZA", 54654, 55061], ["AZA", 55062, 55459]]}, {"localId": "montevideo-L120", "lat": -34.9099709, "lon": -56.152766, "nombre": "OFICINA PARROQUIAL SAN JUAN BAUTISTA", "direccion": "OFICINA PARROQUIAL SAN JUAN BAUTISTA-MONSEÑOR DOMINGO TAMBURINI 1210 esq. RAMÓN MASINI", "nombreNorm": "OFICINA PARROQUIAL SAN JUAN BAUTISTA", "localidad": ".", "series": ["AZB"], "circuitos": [459, 460, 461], "habilitados": 1208, "ranges": [["AZB", 1, 6708], ["AZB", 6709, 8174], ["AZB", 8175, 9367]]}, {"localId": "montevideo-L121", "lat": -34.906506, "lon": -56.1502585, "nombre": "CLUB ATLÉTICO BOHEMIOS", "direccion": "CLUB ATLÉTICO BOHEMIOS-GABRIEL PEREIRA 3025 esq. CIPRIANO PAYÁN", "nombreNorm": "CLUB ATLETICO BOHEMIOS", "localidad": ".", "series": ["AZB"], "circuitos": [462, 463, 464, 465, 466], "habilitados": 2011, "ranges": [["AZB", 9368, 10263], ["AZB", 10264, 11599], ["AZB", 11600, 12694], ["AZB", 12695, 13754], ["AZB", 13755, 14656]]}, {"localId": "montevideo-L122", "lat": -34.8684033, "lon": -56.15276, "nombre": "ESCUELA Nº 193", "direccion": "ESCUELA Nº 193-MIGUEL BARREIRO 3150 esq. ACHIRAS", "nombreNorm": "ESCUELA Nº 193", "localidad": ".", "series": ["AZB"], "circuitos": [467, 468, 469, 470, 471, 472], "habilitados": 2411, "ranges": [["AZB", 14657, 15413], ["AZB", 15414, 16555], ["AZB", 16556, 17294], ["AZB", 17295, 18065], ["AZB", 18066, 18817], ["AZB", 18818, 19544]]}, {"localId": "montevideo-L123", "lat": -34.9094227, "lon": -56.143673, "nombre": "CLUB BANCO REPÚBLICA", "direccion": "CLUB BANCO REPÚBLICA-JUAN BENITO BLANCO 1289 esq. FÉLIX BUXAREO", "nombreNorm": "CLUB BANCO REPUBLICA", "localidad": ".", "series": ["AZB"], "circuitos": [473, 474], "habilitados": 807, "ranges": [["AZB", 19545, 20215], ["AZB", 20216, 20841]]}, {"localId": "montevideo-L124", "lat": -34.909052, "lon": -56.1442247, "nombre": "CLUB BANCO REPÚBLICA", "direccion": "CLUB BANCO REPÚBLICA - EDUCACIÓN INICIAL-ALEJANDRO CHUCARRO 1330 esq. MANUEL V. PAGOLA", "nombreNorm": "CLUB BANCO REPUBLICA", "localidad": ".", "series": ["AZB"], "circuitos": [475, 476, 477, 478], "habilitados": 1610, "ranges": [["AZB", 20842, 21417], ["AZB", 21418, 21986], ["AZB", 21987, 22515], ["AZB", 22516, 23025]]}, {"localId": "montevideo-L125", "lat": -34.8993124, "lon": -56.1562443, "nombre": "MONTEVIDEO COLLEGE", "direccion": "MONTEVIDEO COLLEGE - SECUNDARIA-26 DE MARZO 1130 esq. JOSÉ MARTÍ", "nombreNorm": "MONTEVIDEO COLLEGE", "localidad": ".", "series": ["AZB"], "circuitos": [479, 480, 481], "habilitados": 1212, "ranges": [["AZB", 23026, 23543], ["AZB", 23544, 24025], ["AZB", 24026, 24490]]}, {"localId": "montevideo-L126", "lat": -34.9112543, "lon": -56.1510217, "nombre": "ESCUELA Nº 17", "direccion": "ESCUELA Nº 17 -26 DE MARZO 1066 esq. AV. BRASIL", "nombreNorm": "ESCUELA Nº 17", "localidad": ".", "series": ["AZB"], "circuitos": [482, 483, 484, 485, 486, 487, 488], "habilitados": 2773, "ranges": [["AZB", 24491, 24946], ["AZB", 24947, 25375], ["AZB", 25376, 25793], ["AZB", 25794, 26211], ["AZB", 26212, 26616], ["AZB", 26617, 27022], ["AZB", 27023, 27423]]}, {"localId": "montevideo-L127", "lat": -34.9009588, "lon": -56.1415172, "nombre": "CENTRO SOCIAL CULTURAL Y DEPORTIVO DE BOLOS VALLE MIÑOR", "direccion": "CENTRO SOCIAL CULTURAL Y DEPORTIVO DE BOLOS VALLE MIÑOR-JULIO CÉSAR 1431 esq. AV. GRAL. RIVERA", "nombreNorm": "CENTRO SOCIAL CULTURAL Y DEPORTIVO DE BOLOS VALLE MINOR", "localidad": ".", "series": ["BAA"], "circuitos": [489, 490, 491, 492], "habilitados": 1605, "ranges": [["BAA", 1, 15281], ["BAA", 15282, 18121], ["BAA", 18122, 20190], ["BAA", 20191, 21697]]}, {"localId": "montevideo-L128", "lat": -34.9012001, "lon": -56.1411242, "nombre": "ESCUELA Nº 51", "direccion": "ESCUELA Nº 51 - Nº 98-JULIO CÉSAR 1424  esq. AV. GRAL. RIVERA", "nombreNorm": "ESCUELA Nº 51", "localidad": ".", "series": ["BAA"], "circuitos": [493, 494, 495, 496, 497, 498, 499], "habilitados": 2815, "ranges": [["BAA", 21698, 23480], ["BAA", 23481, 24778], ["BAA", 24779, 25807], ["BAA", 25808, 26764], ["BAA", 26765, 28061], ["BAA", 28062, 29441], ["BAA", 29442, 30437]]}, {"localId": "montevideo-L129", "lat": -34.9016229, "lon": -56.1409823, "nombre": "JARDÍN DE INFANTES Nº 305", "direccion": "JARDÍN DE INFANTES Nº 305 -AVDA. GRAL. RIVERA  3405 esq. JULIO CÉSAR", "nombreNorm": "JARDIN DE INFANTES Nº 305", "localidad": ".", "series": ["BAA"], "circuitos": [500, 501, 502, 503, 504, 505], "habilitados": 2416, "ranges": [["BAA", 30438, 31503], ["BAA", 31504, 32562], ["BAA", 32563, 33239], ["BAA", 33240, 34137], ["BAA", 34138, 35072], ["BAA", 35073, 35739]]}, {"localId": "montevideo-L130", "lat": -34.9008701, "lon": -56.1357717, "nombre": "COLEGIO Y LICEO AMÉRICA", "direccion": "COLEGIO Y LICEO AMÉRICA - INICIAL -RIZAL  3589 esq. TIBURCIO GÓMEZ", "nombreNorm": "COLEGIO Y LICEO AMERICA", "localidad": ".", "series": ["BAA"], "circuitos": [506, 507], "habilitados": 804, "ranges": [["BAA", 35740, 36532], ["BAA", 36533, 37321]]}, {"localId": "montevideo-L131", "lat": -34.9009641, "lon": -56.1359687, "nombre": "COLEGIO Y LICEO AMÉRICA", "direccion": "COLEGIO Y LICEO AMÉRICA - PRIMARIA Y BACHILLERATO-RIZAL 3577 esq. TIBURCIO GÓMEZ", "nombreNorm": "COLEGIO Y LICEO AMERICA", "localidad": ".", "series": ["BAA"], "circuitos": [508, 509, 510, 511, 512, 513], "habilitados": 2419, "ranges": [["BAA", 37322, 38027], ["BAA", 38028, 38728], ["BAA", 38729, 39385], ["BAA", 39386, 40034], ["BAA", 40035, 40694], ["BAA", 40695, 41253]]}, {"localId": "montevideo-L132", "lat": -34.9008109, "lon": -56.1354327, "nombre": "COLEGIO Y LICEO AMÉRICA", "direccion": "COLEGIO Y LICEO AMÉRICA - SECUNDARIA-TIBURCIO GÓMEZ 1379 esq. RIZAL", "nombreNorm": "COLEGIO Y LICEO AMERICA", "localidad": ".", "series": ["BAA"], "circuitos": [514], "habilitados": 403, "ranges": [["BAA", 41254, 41806]]}, {"localId": "montevideo-L133", "lat": -34.9023993331245, "lon": -56.12887299577304, "nombre": "SALÓN COMUNAL C.H. Nº 98", "direccion": "SALÓN COMUNAL C.H. Nº 98-SALDANHA DA GAMA 3911 esq. PAIVA", "nombreNorm": "SALON COMUNAL C.H. Nº 98", "localidad": ".", "series": ["BAA"], "circuitos": [517, 518], "habilitados": 808, "ranges": [["BAA", 42910, 43433], ["BAA", 43434, 43942]]}, {"localId": "montevideo-L134", "lat": -34.9041839, "lon": -56.1289586, "nombre": "LICEO FRANCÉS", "direccion": "LICEO FRANCÉS-BENIGNO PAIVA   1190 esq. MIGUEL GRAU", "nombreNorm": "LICEO FRANCES", "localidad": ".", "series": ["BAA"], "circuitos": [519, 520, 521, 522, 523, 524, 525], "habilitados": 2825, "ranges": [["BAA", 43943, 44455], ["BAA", 44456, 44952], ["BAA", 44953, 45480], ["BAA", 45481, 45963], ["BAA", 45964, 46423], ["BAA", 46424, 46895], ["BAA", 46896, 47342]]}, {"localId": "montevideo-L135", "lat": -34.9064947, "lon": -56.1354586, "nombre": "COLEGIO Y LICEO RICHARD ANDERSON", "direccion": "COLEGIO Y LICEO RICHARD ANDERSON-JOSÉ A. ITURRIAGA 3535 esq. AV. DR. LUIS A. DE HERRERA", "nombreNorm": "COLEGIO Y LICEO RICHARD ANDERSON", "localidad": ".", "series": ["BAA"], "circuitos": [526, 527], "habilitados": 806, "ranges": [["BAA", 47343, 47778], ["BAA", 47779, 48205]]}, {"localId": "montevideo-L136", "lat": -34.9022881, "lon": -56.1440341, "nombre": "PLANETARIO", "direccion": "PLANETARIO-AV. GRAL. RIVERA 3245 esq. DOLORES PEREIRA DE ROSELL", "nombreNorm": "PLANETARIO", "localidad": ".", "series": ["BAA"], "circuitos": [530, 531], "habilitados": 808, "ranges": [["BAA", 49057, 49474], ["BAA", 49475, 49902]]}, {"localId": "montevideo-L137", "lat": -34.9022731, "lon": -56.144214, "nombre": "PARQUE DE LA AMISTAD", "direccion": "PARQUE DE LA AMISTAD - CENTRO DE VISITANTES-AV. GRAL. RIVERA 3245 esq. ALEJO ROSELL Y RIUS", "nombreNorm": "PARQUE DE LA AMISTAD", "localidad": ".", "series": ["BAA"], "circuitos": [532, 533, 534], "habilitados": 1208, "ranges": [["BAA", 49903, 50316], ["BAA", 50317, 50723], ["BAA", 50724, 51129]]}, {"localId": "montevideo-L138", "lat": -34.8973988, "lon": -56.1428192, "nombre": "PARROQUIA SAN IGNACIO", "direccion": "PARROQUIA SAN IGNACIO-ALEJO ROSELL Y RIUS 1603 esq. FELICIANO RODRÍGUEZ", "nombreNorm": "PARROQUIA SAN IGNACIO", "localidad": ".", "series": ["BAA"], "circuitos": [535, 536, 537], "habilitados": 1091, "ranges": [["BAA", 51130, 51535], ["BAA", 51536, 51939], ["BAA", 51940, 52311]]}, {"localId": "montevideo-L139", "lat": -34.8994784, "lon": -56.1321878, "nombre": "INSTITUTO TÉCNICO SUPERIOR", "direccion": "INSTITUTO TÉCNICO SUPERIOR - BUCEO-AV. GRAL. RIVERA .  3729 esq. AV. ING. SANTIAGO RIVAS", "nombreNorm": "INSTITUTO TECNICO SUPERIOR", "localidad": ".", "series": ["BAB"], "circuitos": [538, 539, 540, 541, 542, 543], "habilitados": 2420, "ranges": [["BAB", 1, 18538], ["BAB", 18539, 27934], ["BAB", 27935, 30475], ["BAB", 30476, 32514], ["BAB", 32515, 34090], ["BAB", 34091, 36636]]}, {"localId": "montevideo-L140", "lat": -34.8992815, "lon": -56.1316833, "nombre": "ESCUELA SUPERIOR DE INFORMÁTICA", "direccion": "ESCUELA SUPERIOR DE INFORMÁTICA-AV. GRAL. RIVERA 3729 BIS esq. AV. ING. SANTIAGO RIVAS", "nombreNorm": "ESCUELA SUPERIOR DE INFORMATICA", "localidad": ".", "series": ["BAB"], "circuitos": [544, 545, 546], "habilitados": 1215, "ranges": [["BAB", 36637, 37905], ["BAB", 37906, 39045], ["BAB", 39046, 40035]]}, {"localId": "montevideo-L141", "lat": -34.8994702, "lon": -56.1310507, "nombre": "ESCUELA Nº 35", "direccion": "ESCUELA Nº 35-MELITÓN GONZÁLEZ 1411 esq. AV. GRAL. RIVERA", "nombreNorm": "ESCUELA Nº 35", "localidad": ".", "series": ["BAB"], "circuitos": [547, 548], "habilitados": 811, "ranges": [["BAB", 40036, 41131], ["BAB", 41132, 42461]]}, {"localId": "montevideo-L142", "lat": -34.9034182, "lon": -56.1760497999999, "nombre": "ESCUELA Nº 35", "direccion": "ESCUELA Nº 35-MOLLES S/N  esq. MELITÓN GONZÁLEZ", "nombreNorm": "ESCUELA Nº 35", "localidad": ".", "series": ["BAB"], "circuitos": [549, 550], "habilitados": 814, "ranges": [["BAB", 42462, 43985], ["BAB", 43986, 44984]]}, {"localId": "montevideo-L143", "lat": -34.9023699, "lon": -56.142899, "nombre": "POLICLÍNICA BUCEO", "direccion": "POLICLÍNICA BUCEO-JOSÉ ENRIQUE MICHELENA 1500 esq. AV. ING. SANTIAGO RIVAS", "nombreNorm": "POLICLINICA BUCEO", "localidad": ".", "series": ["BAB"], "circuitos": [551, 552], "habilitados": 811, "ranges": [["BAB", 44985, 46003], ["BAB", 46004, 47034]]}, {"localId": "montevideo-L144", "lat": -34.8953044, "lon": -56.1453181, "nombre": "COLEGIO Y LICEO CERVANTES", "direccion": "COLEGIO Y LICEO CERVANTES-NAVARRA  1766 esq. AV. RAMÓN ANADOR", "nombreNorm": "COLEGIO Y LICEO CERVANTES", "localidad": ".", "series": ["BAB"], "circuitos": [557, 558, 559, 560], "habilitados": 1621, "ranges": [["BAB", 50884, 51993], ["BAB", 51994, 52815], ["BAB", 52816, 53546], ["BAB", 53547, 54339]]}, {"localId": "montevideo-L145", "lat": -34.8951403, "lon": -56.1474382, "nombre": "CENTRO CULTURAL LAS HERAS", "direccion": "CENTRO CULTURAL LAS HERAS-GRAL. LAS HERAS 1762 esq. TALCAHUANO", "nombreNorm": "CENTRO CULTURAL LAS HERAS", "localidad": ".", "series": ["BAB"], "circuitos": [561, 562], "habilitados": 810, "ranges": [["BAB", 54340, 55203], ["BAB", 55204, 55850]]}, {"localId": "montevideo-L146", "lat": -34.892971, "lon": -56.1511956, "nombre": "FACULTAD DE ENFERMERÍA", "direccion": "FACULTAD DE ENFERMERÍA-AV. DR. AMÉRICO RICALDONI S/N esq. DR. MANUEL QUINTELA", "nombreNorm": "FACULTAD DE ENFERMERIA", "localidad": ".", "series": ["BAB"], "circuitos": [563, 564, 565, 566, 567, 568, 569, 570], "habilitados": 3245, "ranges": [["BAB", 55851, 56525], ["BAB", 56526, 57210], ["BAB", 57211, 57858], ["BAB", 57859, 58543], ["BAB", 58544, 59111], ["BAB", 59112, 59690], ["BAB", 59691, 60245], ["BAB", 60246, 60808]]}, {"localId": "montevideo-L147", "lat": -34.892399, "lon": -56.153792, "nombre": "ESCUELA UNIVERSITARIA DE TECNOLOGÍA MÉDICA", "direccion": "ESCUELA UNIVERSITARIA DE TECNOLOGÍA MÉDICA-AV. DR. AMÉRICO RICALDONI S/N esq. AV. ITALIA", "nombreNorm": "ESCUELA UNIVERSITARIA DE TECNOLOGIA MEDICA", "localidad": ".", "series": ["BAB"], "circuitos": [571, 572, 573, 574, 575, 576, 577], "habilitados": 2843, "ranges": [["BAB", 60809, 61319], ["BAB", 61320, 61811], ["BAB", 61812, 62288], ["BAB", 62289, 62789], ["BAB", 62790, 63311], ["BAB", 63312, 63847], ["BAB", 63848, 64316]]}, {"localId": "montevideo-L148", "lat": -34.8929903, "lon": -56.1503133999999, "nombre": "INSTITUTO DE HIGIENE", "direccion": "INSTITUTO DE HIGIENE-DR. ALFREDO NAVARRO  3051  esq. DR. MANUEL QUINTELA", "nombreNorm": "INSTITUTO DE HIGIENE", "localidad": ".", "series": ["BAB"], "circuitos": [578, 579], "habilitados": 813, "ranges": [["BAB", 64317, 64796], ["BAB", 64797, 65247]]}, {"localId": "montevideo-L149", "lat": -34.8927421, "lon": -56.1490433, "nombre": "FACULTAD DE ODONTOLOGÍA", "direccion": "FACULTAD DE ODONTOLOGÍA-GRAL. LAS HERAS 1915 esq. DR. MANUEL QUINTELA", "nombreNorm": "FACULTAD DE ODONTOLOGIA", "localidad": ".", "series": ["BAB"], "circuitos": [580, 581, 582], "habilitados": 1220, "ranges": [["BAB", 65248, 65703], ["BAB", 65704, 66161], ["BAB", 66162, 66593]]}, {"localId": "montevideo-L150", "lat": -34.8891725999999, "lon": -56.1462432, "nombre": "ALDEAS BOCHAS CLUB", "direccion": "ALDEAS BOCHAS CLUB-ÁBALOS 3132 esq. D'AZEGLIO", "nombreNorm": "ALDEAS BOCHAS CLUB", "localidad": ".", "series": ["BAB"], "circuitos": [583, 584, 585], "habilitados": 1218, "ranges": [["BAB", 66594, 67025], ["BAB", 67026, 67454], ["BAB", 67455, 67884]]}, {"localId": "montevideo-L151", "lat": -34.892013, "lon": -56.1428235, "nombre": "COLEGIO NUESTRA SEÑORA DEL LUJÁN", "direccion": "COLEGIO NUESTRA SEÑORA DEL LUJÁN - GIMNASIO-DR. WASHINGTON BELTRÁN 1868 esq. TALCAHUANO", "nombreNorm": "COLEGIO NUESTRA SENORA DEL LUJAN", "localidad": ".", "series": ["BAB"], "circuitos": [586, 587, 588, 589, 590, 591, 592], "habilitados": 2699, "ranges": [["BAB", 67885, 68307], ["BAB", 68308, 68736], ["BAB", 68737, 69148], ["BAB", 69149, 69561], ["BAB", 69562, 69972], ["BAB", 69973, 70382], ["BAB", 70383, 70736]]}, {"localId": "montevideo-L152", "lat": -34.873057, "lon": -56.1394795, "nombre": "ESCUELA TÉCNICA DE LA UNIÓN", "direccion": "ESCUELA TÉCNICA DE LA UNIÓN-LARRAVIDE 2612 esq. JOANICÓ", "nombreNorm": "ESCUELA TECNICA DE LA UNION", "localidad": ".", "series": ["BBA"], "circuitos": [593, 594, 595, 596, 597, 598, 599, 600, 601, 602, 603], "habilitados": 4419, "ranges": [["BBA", 1, 19450], ["BBA", 19451, 23280], ["BBA", 23281, 25886], ["BBA", 25887, 27678], ["BBA", 27679, 29111], ["BBA", 29112, 30304], ["BBA", 30305, 31945], ["BBA", 31946, 33507], ["BBA", 33508, 34617], ["BBA", 34618, 35664], ["BBA", 35665, 36746]]}, {"localId": "montevideo-L153", "lat": -34.8735206, "lon": -56.1401862, "nombre": "COMISIÓN DE FOMENTO DE LA UNIÓN", "direccion": "COMISIÓN DE FOMENTO DE LA UNIÓN-JOANICÓ  3815 esq. LARRAVIDE", "nombreNorm": "COMISION DE FOMENTO DE LA UNION", "localidad": ".", "series": ["BBA"], "circuitos": [604, 605, 606, 607], "habilitados": 1601, "ranges": [["BBA", 36747, 37934], ["BBA", 37935, 38722], ["BBA", 38723, 39673], ["BBA", 39674, 40572]]}, {"localId": "montevideo-L154", "lat": -34.8740504, "lon": -56.1417082, "nombre": "CASA DE LA MUJER DE LA UNIÓN", "direccion": "CASA DE LA MUJER DE LA UNIÓN-ING. JOSÉ SERRATO  2613  esq. JOANICÓ", "nombreNorm": "CASA DE LA MUJER DE LA UNION", "localidad": ".", "series": ["BBA"], "circuitos": [608], "habilitados": 403, "ranges": [["BBA", 40573, 41534]]}, {"localId": "montevideo-L155", "lat": -34.8671853, "lon": -56.1470983, "nombre": "IGLESIA DE JESUCRISTO DE LOS SANTOS DE LOS ÚLTIMOS DÍAS", "direccion": "IGLESIA DE JESUCRISTO DE LOS SANTOS DE LOS ÚLTIMOS DÍAS-ING. JOSÉ SERRATO    3028 esq. AGACES", "nombreNorm": "IGLESIA DE JESUCRISTO DE LOS SANTOS DE LOS ULTIMOS DIAS", "localidad": ".", "series": ["BBA"], "circuitos": [609, 610, 611, 612, 613, 614], "habilitados": 2408, "ranges": [["BBA", 41535, 42348], ["BBA", 42349, 43111], ["BBA", 43112, 43880], ["BBA", 43881, 44709], ["BBA", 44710, 45435], ["BBA", 45436, 46138]]}, {"localId": "montevideo-L156", "lat": -34.8635451, "lon": -56.1490291, "nombre": "JARDÍN DE INFANTES Nº 215", "direccion": "JARDÍN DE INFANTES Nº 215-PSJE. JUAN RAMÓN JIMENEZ 3789 esq. ING. JOSÉ SERRATO", "nombreNorm": "JARDIN DE INFANTES Nº 215", "localidad": ".", "series": ["BBA"], "circuitos": [615, 616, 617, 618], "habilitados": 1609, "ranges": [["BBA", 46139, 46833], ["BBA", 46834, 47518], ["BBA", 47519, 48261], ["BBA", 48262, 48894]]}, {"localId": "montevideo-L157", "lat": -34.8645241, "lon": -56.1362293, "nombre": "COLEGIO NUEVA ESPERANZA", "direccion": "COLEGIO NUEVA ESPERANZA-DR. JOSÉ IRURETA GOYENA 3359 esq. CAP. HIPÓLITO MORDEILLE", "nombreNorm": "COLEGIO NUEVA ESPERANZA", "localidad": ".", "series": ["BBA"], "circuitos": [622, 623], "habilitados": 803, "ranges": [["BBA", 50669, 51212], ["BBA", 51213, 51728]]}, {"localId": "montevideo-L158", "lat": -34.8619227, "lon": -56.1398163, "nombre": "ESCUELA Nº 117", "direccion": "ESCUELA Nº 117 - Nº 165 -LABARDEN 4168 esq. CNO. CORRALES", "nombreNorm": "ESCUELA Nº 117", "localidad": ".", "series": ["BBA"], "circuitos": [627, 628, 629, 630, 631, 632], "habilitados": 2414, "ranges": [["BBA", 53291, 53793], ["BBA", 53794, 54262], ["BBA", 54263, 54734], ["BBA", 54735, 55207], ["BBA", 55208, 55655], ["BBA", 55656, 56113]]}, {"localId": "montevideo-L159", "lat": -34.8670589, "lon": -56.1413618, "nombre": "COLEGIO FEDERICO OZANAM", "direccion": "COLEGIO FEDERICO OZANAM-CIRENE 3996 esq. LEOPOLDO ALAS", "nombreNorm": "COLEGIO FEDERICO OZANAM", "localidad": ".", "series": ["BBA"], "circuitos": [633, 634, 635, 636, 637], "habilitados": 1955, "ranges": [["BBA", 56114, 56548], ["BBA", 56549, 56974], ["BBA", 56975, 57392], ["BBA", 57393, 57800], ["BBA", 57801, 58188]]}, {"localId": "montevideo-L160", "lat": -34.8763992, "lon": -56.1450914, "nombre": "ESCUELA Nº 19", "direccion": "ESCUELA Nº 19 - Nº 76 -AV. 8 DE OCTUBRE  3515 esq. FELIPE SANGUINETTI", "nombreNorm": "ESCUELA Nº 19", "localidad": ".", "series": ["BBB"], "circuitos": [638, 639, 640, 641, 642], "habilitados": 2034, "ranges": [["BBB", 1, 20620], ["BBB", 20621, 23715], ["BBB", 23716, 26693], ["BBB", 26694, 28296], ["BBB", 28297, 29989]]}, {"localId": "montevideo-L161", "lat": -34.8767047, "lon": -56.1450914, "nombre": "ESCUELA Nº 20", "direccion": "ESCUELA Nº 20 -AV. 8 DE OCTUBRE 3545 esq. FELIPE SANGUINETTI", "nombreNorm": "ESCUELA Nº 20", "localidad": ".", "series": ["BBB"], "circuitos": [643, 644, 645, 646, 647], "habilitados": 2043, "ranges": [["BBB", 29990, 31123], ["BBB", 31124, 32263], ["BBB", 32264, 33721], ["BBB", 33722, 35344], ["BBB", 35345, 36425]]}, {"localId": "montevideo-L162", "lat": -34.8796772, "lon": -56.147886, "nombre": "LICEO Nº 14", "direccion": "LICEO Nº 14-BV. JOSÉ BATLLE Y ORDÓÑEZ S/N esq. AV. 8 DE OCTUBRE", "nombreNorm": "LICEO Nº 14", "localidad": ".", "series": ["BBB"], "circuitos": [648, 649, 650], "habilitados": 1224, "ranges": [["BBB", 36426, 37435], ["BBB", 37436, 38610], ["BBB", 38611, 39680]]}, {"localId": "montevideo-L163", "lat": -34.879864, "lon": -56.1541614, "nombre": "ESCUELA Nº 80", "direccion": "ESCUELA Nº 80 - Nº 28 -MONTE CASEROS 3198 esq. AV. DR. LUIS A. DE HERRERA", "nombreNorm": "ESCUELA Nº 80", "localidad": ".", "series": ["BBB"], "circuitos": [651, 652, 653, 654, 655, 656, 657], "habilitados": 2853, "ranges": [["BBB", 39681, 40414], ["BBB", 40415, 41401], ["BBB", 41402, 42463], ["BBB", 42464, 43306], ["BBB", 43307, 44039], ["BBB", 44040, 44840], ["BBB", 44841, 45607]]}, {"localId": "montevideo-L164", "lat": -34.8688175, "lon": -56.1520683, "nombre": "LICEO Nº 64", "direccion": "LICEO Nº 64-PARMA  3026 esq. AV. DÁMASO ANTONIO LARRAÑAGA", "nombreNorm": "LICEO Nº 64", "localidad": ".", "series": ["BBB"], "circuitos": [658, 659, 660, 661, 662, 663, 664], "habilitados": 2860, "ranges": [["BBB", 45608, 46367], ["BBB", 46368, 47056], ["BBB", 47057, 47814], ["BBB", 47815, 48492], ["BBB", 48493, 49071], ["BBB", 49072, 49675], ["BBB", 49676, 50273]]}, {"localId": "montevideo-L165", "lat": -34.8603395, "lon": -56.1464868, "nombre": "ESCUELA Nº 89", "direccion": "ESCUELA Nº 89 -ALGARROBO 3719 esq. ING. JOSÉ SERRATO", "nombreNorm": "ESCUELA Nº 89", "localidad": ".", "series": ["BBB"], "circuitos": [665, 666, 667, 668, 669, 670, 671, 672], "habilitados": 3267, "ranges": [["BBB", 50274, 50812], ["BBB", 50813, 51328], ["BBB", 51329, 51834], ["BBB", 51835, 52359], ["BBB", 52360, 52912], ["BBB", 52913, 53440], ["BBB", 53441, 53917], ["BBB", 53918, 54426]]}, {"localId": "montevideo-L166", "lat": -34.8728574, "lon": -56.1416032, "nombre": "CLUB COETC", "direccion": "CLUB COETC - SALÓN-JOANICÓ 3725 esq. ING. JOSÉ SERRATO", "nombreNorm": "CLUB COETC", "localidad": ".", "series": ["BBB"], "circuitos": [673, 674, 675, 676, 677, 678, 679], "habilitados": 2804, "ranges": [["BBB", 54427, 54871], ["BBB", 54872, 55310], ["BBB", 55311, 55752], ["BBB", 55753, 56197], ["BBB", 56198, 56614], ["BBB", 56615, 57027], ["BBB", 57028, 57423]]}, {"localId": "montevideo-L167", "lat": -34.8559918, "lon": -56.1569524, "nombre": "COLEGIO REGINA MARTYRUM", "direccion": "COLEGIO REGINA MARTYRUM-ING. JOSÉ SERRATO 3536 esq. CORUMBÉ", "nombreNorm": "COLEGIO REGINA MARTYRUM", "localidad": ".", "series": ["BBC", "BBD"], "circuitos": [680, 681, 689, 690, 691, 692], "habilitados": 2192, "ranges": [["BBC", 1, 431], ["BBC", 432, 901], ["BBD", 1226, 1624], ["BBD", 1625, 2011], ["BBD", 2012, 2390], ["BBD", 2391, 2767]]}, {"localId": "montevideo-L168", "lat": -34.8548968, "lon": -56.1585868, "nombre": "ESCUELA Nº 93", "direccion": "ESCUELA Nº 93 - Nº 137-ING. JOSÉ SERRATO 3609 esq. PALOMAS", "nombreNorm": "ESCUELA Nº 93", "localidad": ".", "series": ["BBC"], "circuitos": [682, 683, 684, 685], "habilitados": 1447, "ranges": [["BBC", 902, 1289], ["BBC", 1290, 1683], ["BBC", 1684, 2057], ["BBC", 2058, 2428]]}, {"localId": "montevideo-L169", "lat": -34.8578496, "lon": -56.1471171, "nombre": "CAIF EL NIDO", "direccion": "CAIF EL NIDO-AV. COSTANERA ARROYO CERRITO 3512 esq. GAVILÁN", "nombreNorm": "CAIF EL NIDO", "localidad": ".", "series": ["BBD"], "circuitos": [686, 687, 688], "habilitados": 1124, "ranges": [["BBD", 1, 422], ["BBD", 423, 832], ["BBD", 833, 1225]]}, {"localId": "montevideo-L170", "lat": -34.8893676, "lon": -56.1142641, "nombre": "IGLESIA DE JESUCRISTO DE LOS SANTOS DE LOS ÚLTIMOS DÍAS", "direccion": "IGLESIA DE JESUCRISTO DE LOS SANTOS DE LOS ÚLTIMOS DÍAS-DALMIRO COSTA  4635  esq. CALDAS", "nombreNorm": "IGLESIA DE JESUCRISTO DE LOS SANTOS DE LOS ULTIMOS DIAS", "localidad": ".", "series": ["BCA"], "circuitos": [693, 694, 695, 696, 697], "habilitados": 2015, "ranges": [["BCA", 1, 26130], ["BCA", 26131, 31048], ["BCA", 31049, 34711], ["BCA", 34712, 37875], ["BCA", 37876, 41064]]}, {"localId": "montevideo-L171", "lat": -34.8882689, "lon": -56.1105126999999, "nombre": "COLEGIO SAGRADA FAMILIA HERMANAS URSULINAS", "direccion": "COLEGIO SAGRADA FAMILIA HERMANAS URSULINAS-AV. ESTANISLAO LÓPEZ 4568 esq. CANDELARIA", "nombreNorm": "COLEGIO SAGRADA FAMILIA HERMANAS URSULINAS", "localidad": ".", "series": ["BCA"], "circuitos": [698, 699, 700, 701], "habilitados": 1625, "ranges": [["BCA", 41065, 44549], ["BCA", 44550, 47088], ["BCA", 47089, 48794], ["BCA", 48795, 50311]]}, {"localId": "montevideo-L172", "lat": -34.8875941, "lon": -56.114002, "nombre": "IGLESIA SANTA BERNARDITA", "direccion": "IGLESIA SANTA BERNARDITA-AV. ITALIA   4418 esq. CALDAS", "nombreNorm": "IGLESIA SANTA BERNARDITA", "localidad": ".", "series": ["BCA"], "circuitos": [702, 703], "habilitados": 813, "ranges": [["BCA", 50312, 51994], ["BCA", 51995, 53522]]}, {"localId": "montevideo-L173", "lat": -34.8882299, "lon": -56.1146348, "nombre": "ESCUELA Nº 172", "direccion": "ESCUELA Nº 172 -CALDAS 1721 esq. AV. ITALIA", "nombreNorm": "ESCUELA Nº 172", "localidad": ".", "series": ["BCA"], "circuitos": [704, 705, 706, 707, 708, 709, 710], "habilitados": 2838, "ranges": [["BCA", 53523, 55094], ["BCA", 55095, 56796], ["BCA", 56797, 58781], ["BCA", 58782, 60397], ["BCA", 60398, 61678], ["BCA", 61679, 62767], ["BCA", 62768, 63961]]}, {"localId": "montevideo-L174", "lat": -34.8875178, "lon": -56.1197124, "nombre": "POLICLÍNICO COSEM MALVÍN", "direccion": "POLICLÍNICO COSEM MALVÍN-AV. ITALIA 4206 esq. MARISCALA", "nombreNorm": "POLICLINICO COSEM MALVIN", "localidad": ".", "series": ["BCA"], "circuitos": [711, 712, 713], "habilitados": 1217, "ranges": [["BCA", 63962, 65164], ["BCA", 65165, 66111], ["BCA", 66112, 67044]]}, {"localId": "montevideo-L175", "lat": -34.8875373, "lon": -56.1213289, "nombre": "LICEO Nº 10", "direccion": "LICEO Nº 10-MATAOJO  1862  esq. AV. ITALIA", "nombreNorm": "LICEO Nº 10", "localidad": ".", "series": ["BCA"], "circuitos": [714, 715, 716, 717, 718, 719, 720, 721, 722], "habilitados": 3651, "ranges": [["BCA", 67045, 68151], ["BCA", 68152, 69088], ["BCA", 69089, 70114], ["BCA", 70115, 71164], ["BCA", 71165, 72215], ["BCA", 72216, 73368], ["BCA", 73369, 74920], ["BCA", 74921, 76211], ["BCA", 76212, 77321]]}, {"localId": "montevideo-L176", "lat": -34.8878162, "lon": -56.1278697, "nombre": "ESCUELA Nº 60", "direccion": "ESCUELA Nº 60 -SOLFERINO 4069 esq. AV. MARISCAL FCO. SOLANO LÓPEZ", "nombreNorm": "ESCUELA Nº 60", "localidad": ".", "series": ["BCA"], "circuitos": [723, 724, 725, 726], "habilitados": 1625, "ranges": [["BCA", 77322, 78739], ["BCA", 78740, 80287], ["BCA", 80288, 82053], ["BCA", 82054, 83192]]}, {"localId": "montevideo-L177", "lat": -34.8939038, "lon": -56.1246023, "nombre": "ESCUELA Nº 72", "direccion": "ESCUELA Nº 72 -PÉREZ GOMAR 4219 esq. AV. MARISCAL FCO. SOLANO LÓPEZ", "nombreNorm": "ESCUELA Nº 72", "localidad": ".", "series": ["BCA"], "circuitos": [732, 733, 734, 735, 736, 737, 738, 739, 740, 741, 742], "habilitados": 4453, "ranges": [["BCA", 88290, 89373], ["BCA", 89374, 90465], ["BCA", 90466, 91937], ["BCA", 91938, 92750], ["BCA", 92751, 93516], ["BCA", 93517, 94266], ["BCA", 94267, 95357], ["BCA", 95358, 96479], ["BCA", 96480, 97491], ["BCA", 97492, 98198], ["BCA", 98199, 99021]]}, {"localId": "montevideo-L178", "lat": -34.8969751, "lon": -56.1216873, "nombre": "COLEGIO SANTA ELENA", "direccion": "COLEGIO SANTA ELENA-JUAN MANUEL ESPINOSA  S/N esq. AV. GRAL. RIVERA", "nombreNorm": "COLEGIO SANTA ELENA", "localidad": ".", "series": ["BCA"], "circuitos": [743, 744, 745, 746, 747, 748, 749, 750, 751], "habilitados": 3658, "ranges": [["BCA", 99022, 99805], ["BCA", 99806, 100536], ["BCA", 100537, 101310], ["BCA", 101311, 101973], ["BCA", 101974, 102691], ["BCA", 102692, 103338], ["BCA", 103339, 104011], ["BCA", 104012, 104603], ["BCA", 104604, 105150]]}, {"localId": "montevideo-L179", "lat": -34.895615, "lon": -56.1206331, "nombre": "JARDÍN DE INFANTES Nº 221", "direccion": "JARDÍN DE INFANTES Nº 221-AV. GRAL RIVERA 4282 esq. ARRASCAETA", "nombreNorm": "JARDIN DE INFANTES Nº 221", "localidad": ".", "series": ["BCA"], "circuitos": [752, 753, 754, 755], "habilitados": 1625, "ranges": [["BCA", 105151, 105711], ["BCA", 105712, 106284], ["BCA", 106285, 106813], ["BCA", 106814, 107315]]}, {"localId": "montevideo-L180", "lat": -34.8959795, "lon": -56.1144271, "nombre": "COLEGIO DEL SUR", "direccion": "COLEGIO DEL SUR-AV. COLOMBES 1340 esq. VELSEN", "nombreNorm": "COLEGIO DEL SUR", "localidad": ".", "series": ["BCA"], "circuitos": [757, 758, 759, 760], "habilitados": 1625, "ranges": [["BCA", 107817, 108337], ["BCA", 108338, 108834], ["BCA", 108835, 109345], ["BCA", 109346, 109836]]}, {"localId": "montevideo-L181", "lat": -34.8944688, "lon": -56.1144317, "nombre": "COLEGIO Y LICEO GABRIELA MISTRAL", "direccion": "COLEGIO Y LICEO GABRIELA MISTRAL-AMSTERDAM 1469 esq. VELSEN", "nombreNorm": "COLEGIO Y LICEO GABRIELA MISTRAL", "localidad": ".", "series": ["BCA"], "circuitos": [761, 762, 763, 764, 765, 766, 767, 768, 769], "habilitados": 3660, "ranges": [["BCA", 109837, 110313], ["BCA", 110314, 110773], ["BCA", 110774, 111247], ["BCA", 111248, 111693], ["BCA", 111694, 112123], ["BCA", 112124, 112556], ["BCA", 112557, 112981], ["BCA", 112982, 113413], ["BCA", 113414, 113842]]}, {"localId": "montevideo-L182", "lat": -34.8938735, "lon": -56.1055684, "nombre": "BECQUER SCHOOL", "direccion": "BECQUER SCHOOL-AV. GRAL. RIVERA 4606 esq. ATLÁNTICO", "nombreNorm": "BECQUER SCHOOL", "localidad": ".", "series": ["BCA"], "circuitos": [770, 771], "habilitados": 811, "ranges": [["BCA", 113843, 114264], ["BCA", 114265, 114681]]}, {"localId": "montevideo-L183", "lat": -34.8762939, "lon": -56.1393427, "nombre": "BACHILLERATO SANTA LUISA DE MARILLAC", "direccion": "BACHILLERATO SANTA LUISA DE MARILLAC -JOSÉ ANTONIO CABRERA 3762 esq. ING. JOSÉ SERRATO", "nombreNorm": "BACHILLERATO SANTA LUISA DE MARILLAC", "localidad": ".", "series": ["BCB"], "circuitos": [776, 777, 778, 779, 780], "habilitados": 2037, "ranges": [["BCB", 1, 18130], ["BCB", 18131, 21430], ["BCB", 21431, 24123], ["BCB", 24124, 25952], ["BCB", 25953, 27994]]}, {"localId": "montevideo-L184", "lat": -34.875282, "lon": -56.1371, "nombre": "COLEGIO Y LICEO SANTA LUISA DE MARILLAC", "direccion": "COLEGIO Y LICEO SANTA LUISA DE MARILLAC-LARRAVIDE  2406  esq. JOSÉ ANTONIO CABRERA", "nombreNorm": "COLEGIO Y LICEO SANTA LUISA DE MARILLAC", "localidad": ".", "series": ["BCB"], "circuitos": [781, 782, 783, 784, 785, 786, 787, 788, 789], "habilitados": 3665, "ranges": [["BCB", 27995, 29397], ["BCB", 29398, 30608], ["BCB", 30609, 32333], ["BCB", 32334, 33721], ["BCB", 33722, 35341], ["BCB", 35342, 36596], ["BCB", 36597, 37808], ["BCB", 37809, 38935], ["BCB", 38936, 40168]]}, {"localId": "montevideo-L185", "lat": -34.8740841, "lon": -56.1362799, "nombre": "CLUB SOCIAL Y DEPORTIVO CABRERA", "direccion": "CLUB SOCIAL Y DEPORTIVO CABRERA - SALÓN DE FIESTAS-JOSÉ ANTONIO CABRERA 3935  esq. GRAL. FÉLIX LABORDE", "nombreNorm": "CLUB SOCIAL Y DEPORTIVO CABRERA", "localidad": ".", "series": ["BCB"], "circuitos": [790, 791], "habilitados": 815, "ranges": [["BCB", 40169, 41589], ["BCB", 41590, 42507]]}, {"localId": "montevideo-L186", "lat": -34.8743416, "lon": -56.135624, "nombre": "ESCUELA Nº 44", "direccion": "ESCUELA Nº 44-GRAL. FÉLIX LABORDE 2439 esq. JOSÉ ANTONIO CABRERA", "nombreNorm": "ESCUELA Nº 44", "localidad": ".", "series": ["BCB"], "circuitos": [792, 793, 794, 795, 796, 797, 798, 799, 800], "habilitados": 3656, "ranges": [["BCB", 42508, 43384], ["BCB", 43385, 44176], ["BCB", 44177, 45247], ["BCB", 45248, 46421], ["BCB", 46422, 47610], ["BCB", 47611, 48650], ["BCB", 48651, 49461], ["BCB", 49462, 50368], ["BCB", 50369, 51241]]}, {"localId": "montevideo-L187", "lat": -34.8799955, "lon": -56.1352406, "nombre": "IGLESIA DE JESUCRISTO DE LOS SANTOS DE LOS ÚLTIMOS DÍAS", "direccion": "IGLESIA DE JESUCRISTO DE LOS SANTOS DE LOS ÚLTIMOS DÍAS-AZARA   3767 esq. ING. JOSÉ SERRATO", "nombreNorm": "IGLESIA DE JESUCRISTO DE LOS SANTOS DE LOS ULTIMOS DIAS", "localidad": ".", "series": ["BCB"], "circuitos": [801, 802, 803, 804, 805, 806, 807, 808], "habilitados": 3246, "ranges": [["BCB", 51242, 52104], ["BCB", 52105, 52888], ["BCB", 52889, 53680], ["BCB", 53681, 54510], ["BCB", 54511, 55409], ["BCB", 55410, 56181], ["BCB", 56182, 56959], ["BCB", 56960, 57745]]}, {"localId": "montevideo-L188", "lat": -34.8857242, "lon": -56.1311543, "nombre": "ARNOLD GESELL", "direccion": "ARNOLD GESELL - PREESCOLAR-COMERCIO 1954 esq. GAUNA", "nombreNorm": "ARNOLD GESELL", "localidad": ".", "series": ["BCB"], "circuitos": [813, 814], "habilitados": 812, "ranges": [["BCB", 60713, 61409], ["BCB", 61410, 62104]]}, {"localId": "montevideo-L189", "lat": -34.8621084, "lon": -56.1626479, "nombre": "ARNOLD GESELL", "direccion": "ARNOLD GESELL - PRIMARIA-RAFAEL PÉREZ S/N esq. GAUNA", "nombreNorm": "ARNOLD GESELL", "localidad": ".", "series": ["BCB"], "circuitos": [815, 816, 817, 818, 819, 820], "habilitados": 2446, "ranges": [["BCB", 62105, 62872], ["BCB", 62873, 63524], ["BCB", 63525, 64151], ["BCB", 64152, 64748], ["BCB", 64749, 65355], ["BCB", 65356, 65927]]}, {"localId": "montevideo-L190", "lat": -34.8775304, "lon": -56.1192855, "nombre": "CAIF BETÚM DETI", "direccion": "CAIF BETÚM DETI-MALLORCA 4472 esq. MATAOJO", "nombreNorm": "CAIF BETUM DETI", "localidad": ".", "series": ["BCB"], "circuitos": [821, 822, 823, 824], "habilitados": 1630, "ranges": [["BCB", 65928, 66510], ["BCB", 66511, 67068], ["BCB", 67069, 67626], ["BCB", 67627, 68246]]}, {"localId": "montevideo-L191", "lat": -34.8781356, "lon": -56.1207618, "nombre": "ESCUELA TÉCNICA MALVÍN NORTE", "direccion": "ESCUELA TÉCNICA MALVÍN NORTE-MALLORCA 15 esq. PIRÁN", "nombreNorm": "ESCUELA TECNICA MALVIN NORTE", "localidad": ".", "series": ["BCB"], "circuitos": [825, 826, 827, 828, 829, 830], "habilitados": 2444, "ranges": [["BCB", 68247, 68814], ["BCB", 68815, 69351], ["BCB", 69352, 69880], ["BCB", 69881, 70431], ["BCB", 70432, 70967], ["BCB", 70968, 71486]]}, {"localId": "montevideo-L192", "lat": -34.8752645, "lon": -56.1189411999999, "nombre": "JARDÍN DE INFANTES Nº 278", "direccion": "JARDÍN DE INFANTES Nº 278-EMILIO CASTELAR 4530 esq. ROBERTO BERRO", "nombreNorm": "JARDIN DE INFANTES Nº 278", "localidad": ".", "series": ["BCB"], "circuitos": [831], "habilitados": 409, "ranges": [["BCB", 71487, 72045]]}, {"localId": "montevideo-L193", "lat": -34.8748903, "lon": -56.1205665, "nombre": "ESCUELA Nº 268", "direccion": "ESCUELA Nº 268 -EMILIO CASTELAR 4510 esq. ROBERTO BERRO", "nombreNorm": "ESCUELA Nº 268", "localidad": ".", "series": ["BCB"], "circuitos": [832, 833, 834, 835, 836, 837, 838, 839, 840, 841], "habilitados": 4071, "ranges": [["BCB", 72046, 72576], ["BCB", 72577, 73109], ["BCB", 73110, 73671], ["BCB", 73672, 74194], ["BCB", 74195, 74712], ["BCB", 74713, 75225], ["BCB", 75226, 75708], ["BCB", 75709, 76175], ["BCB", 76176, 76640], ["BCB", 76641, 77074]]}, {"localId": "montevideo-L194", "lat": -34.8751096, "lon": -56.119892, "nombre": "SALÓN COMUNAL EUSKALERRIA 71", "direccion": "SALÓN COMUNAL EUSKALERRIA 71-EMILIO CASTELAR 4510  esq. PIRÁN", "nombreNorm": "SALON COMUNAL EUSKALERRIA 71", "localidad": ".", "series": ["BCB"], "circuitos": [842, 843], "habilitados": 815, "ranges": [["BCB", 77075, 77508], ["BCB", 77509, 77935]]}, {"localId": "montevideo-L195", "lat": -34.8721275, "lon": -56.1197865, "nombre": "ESCUELA VICMAN", "direccion": "ESCUELA VICMAN-CNO. CARRASCO 4570 esq. PIRÁN", "nombreNorm": "ESCUELA VICMAN", "localidad": ".", "series": ["BCB"], "circuitos": [844, 845, 846, 847, 848, 849], "habilitados": 2329, "ranges": [["BCB", 77936, 78362], ["BCB", 78363, 78797], ["BCB", 78798, 79215], ["BCB", 79216, 79631], ["BCB", 79632, 80042], ["BCB", 80043, 80394]]}, {"localId": "montevideo-L196", "lat": -34.7759252, "lon": -56.0425499, "nombre": "JARDÍN DE INFANTES Nº 244", "direccion": "JARDÍN DE INFANTES Nº 244 -MICHIGAN S/N esq. DECROLY", "nombreNorm": "JARDIN DE INFANTES Nº 244", "localidad": ".", "series": ["BCC"], "circuitos": [850, 851, 852, 853], "habilitados": 1633, "ranges": [["BCC", 1, 921], ["BCC", 922, 2098], ["BCC", 2099, 3038], ["BCC", 3039, 3709]]}, {"localId": "montevideo-L197", "lat": -34.8919402, "lon": -56.0994062, "nombre": "ESCUELA Nº 219", "direccion": "ESCUELA Nº 219 - Nº 274-DR. DECROLY 5071 esq. MICHIGAN", "nombreNorm": "ESCUELA Nº 219", "localidad": ".", "series": ["BCC"], "circuitos": [854, 855, 856, 857, 858, 859, 860], "habilitados": 2862, "ranges": [["BCC", 3710, 4362], ["BCC", 4363, 5059], ["BCC", 5060, 6303], ["BCC", 6304, 7006], ["BCC", 7007, 7674], ["BCC", 7675, 8388], ["BCC", 8389, 9082]]}, {"localId": "montevideo-L198", "lat": -34.894163, "lon": -56.0965298, "nombre": "COLEGIO Y LICEO JOHN F. KENNEDY", "direccion": "COLEGIO Y LICEO JOHN F. KENNEDY-MISSOURI 1485 esq. PILCOMAYO", "nombreNorm": "COLEGIO Y LICEO JOHN F. KENNEDY", "localidad": ".", "series": ["BCC"], "circuitos": [861, 862], "habilitados": 814, "ranges": [["BCC", 9083, 9846], ["BCC", 9847, 10471]]}, {"localId": "montevideo-L199", "lat": -34.8897456, "lon": -56.0969548, "nombre": "CLUB MALVÍN", "direccion": "CLUB MALVÍN - RECREACIÓN-RETAMOSA 1781 esq. ANDRÉS GÓMEZ", "nombreNorm": "CLUB MALVIN", "localidad": ".", "series": ["BCC"], "circuitos": [863, 864], "habilitados": 817, "ranges": [["BCC", 10472, 11089], ["BCC", 11090, 11745]]}, {"localId": "montevideo-L200", "lat": -34.8913842, "lon": -56.0940661, "nombre": "COLEGIO FEDERICO GARCÍA LORCA", "direccion": "COLEGIO FEDERICO GARCÍA LORCA-DR. ALEJANDRO GALLINAL 1566 esq. AV. GRAL. RIVERA", "nombreNorm": "COLEGIO FEDERICO GARCIA LORCA", "localidad": ".", "series": ["BCC"], "circuitos": [865, 866, 867], "habilitados": 1226, "ranges": [["BCC", 11746, 12378], ["BCC", 12379, 13023], ["BCC", 13024, 13672]]}, {"localId": "montevideo-L201", "lat": -34.8889351, "lon": -56.0899813, "nombre": "COLEGIO LA MENNAIS", "direccion": "COLEGIO LA MENNAIS-ING. JOSÉ ACQUISTAPACE 1701 esq. AV. GRAL. RIVERA", "nombreNorm": "COLEGIO LA MENNAIS", "localidad": ".", "series": ["BCC"], "circuitos": [868, 869, 870, 871, 872, 873, 874], "habilitados": 2851, "ranges": [["BCC", 13673, 14237], ["BCC", 14238, 14766], ["BCC", 14767, 15294], ["BCC", 15295, 15826], ["BCC", 15827, 16357], ["BCC", 16358, 16863], ["BCC", 16864, 17362]]}, {"localId": "montevideo-L202", "lat": -34.8873715, "lon": -56.0868554, "nombre": "LICEO Nº 20", "direccion": "LICEO Nº 20-AV. ESC. LEDO ARROYO TORRES  S/N esq. HERNANI", "nombreNorm": "LICEO Nº 20", "localidad": ".", "series": ["BCC"], "circuitos": [875, 876, 877, 878, 879, 880], "habilitados": 2454, "ranges": [["BCC", 17363, 17833], ["BCC", 17834, 18317], ["BCC", 18318, 18800], ["BCC", 18801, 19300], ["BCC", 19301, 19790], ["BCC", 19791, 20268]]}, {"localId": "montevideo-L203", "lat": -34.8956507, "lon": -56.1112615, "nombre": "ASOCIACIÓN CRISTIANA DE JÓVENES", "direccion": "ASOCIACIÓN CRISTIANA DE JÓVENES - UNIDAD PORTONES-ESTHER DE CÁCERES 5678 esq. MARÍA ESPÍNOLA", "nombreNorm": "ASOCIACION CRISTIANA DE JOVENES", "localidad": ".", "series": ["BCC"], "circuitos": [881, 882], "habilitados": 818, "ranges": [["BCC", 20269, 20738], ["BCC", 20739, 21197]]}, {"localId": "montevideo-L204", "lat": -34.8920122, "lon": -56.0851124, "nombre": "ESCUELA Nº 180", "direccion": "ESCUELA Nº 180 -CARAMURÚ 5700 esq. MARÍA ESPÍNOLA", "nombreNorm": "ESCUELA Nº 180", "localidad": ".", "series": ["BCC"], "circuitos": [883, 884, 885, 886, 887], "habilitados": 2044, "ranges": [["BCC", 21198, 21640], ["BCC", 21641, 22086], ["BCC", 22087, 22528], ["BCC", 22529, 22950], ["BCC", 22951, 23373]]}, {"localId": "montevideo-L205", "lat": -34.8982178, "lon": -56.0657288, "nombre": "ESCUELA Nº 81", "direccion": "ESCUELA Nº 81 - N° 189-SAN NICOLÁS 1296 esq. SIRIA", "nombreNorm": "ESCUELA Nº 81", "localidad": ".", "series": ["BCC"], "circuitos": [893, 894, 895, 896, 897, 898], "habilitados": 2287, "ranges": [["BCC", 25485, 25896], ["BCC", 25897, 26306], ["BCC", 26307, 26717], ["BCC", 26718, 27128], ["BCC", 27129, 27537], ["BCC", 27538, 27911]]}, {"localId": "montevideo-L206", "lat": -34.8834993, "lon": -56.0823236, "nombre": "ESCUELA Nº 130", "direccion": "ESCUELA Nº 130 -AV. DR. JUAN BAUTISTA ALBERDI 5854 esq. AV. BOLIVIA", "nombreNorm": "ESCUELA Nº 130", "localidad": ".", "series": ["BCD"], "circuitos": [899, 900, 901, 902, 903], "habilitados": 1995, "ranges": [["BCD", 1, 874], ["BCD", 875, 2276], ["BCD", 2277, 3047], ["BCD", 3048, 3718], ["BCD", 3719, 4352]]}, {"localId": "montevideo-L207", "lat": -34.8851232, "lon": -56.0813482999999, "nombre": "PREUNIVERSITARIO JESÚS MARÍA", "direccion": "PREUNIVERSITARIO JESÚS MARÍA-AV. DR. JUAN BAUTISTA ALBERDI 5763 esq. AV. BOLIVIA", "nombreNorm": "PREUNIVERSITARIO JESUS MARIA", "localidad": ".", "series": ["BCD"], "circuitos": [904, 905], "habilitados": 790, "ranges": [["BCD", 4353, 5342], ["BCD", 5343, 6488]]}, {"localId": "montevideo-L208", "lat": -34.8878793, "lon": -56.0743029, "nombre": "IGLESIA DE JESUCRISTO DE LOS SANTOS DE LOS ÚLTIMOS DÍAS", "direccion": "IGLESIA DE JESUCRISTO DE LOS SANTOS DE LOS ÚLTIMOS DÍAS-AV. SAN CARLOS DE BOLÍVAR   6112 esq. BOLONIA", "nombreNorm": "IGLESIA DE JESUCRISTO DE LOS SANTOS DE LOS ULTIMOS DIAS", "localidad": ".", "series": ["BCD"], "circuitos": [906, 907, 908], "habilitados": 1196, "ranges": [["BCD", 6489, 7202], ["BCD", 7203, 7862], ["BCD", 7863, 8651]]}, {"localId": "montevideo-L209", "lat": -34.8852419, "lon": -56.0655928, "nombre": "WOODLANDS SCHOOL", "direccion": "WOODLANDS SCHOOL-AV. SAN CARLOS DE BOLÍVAR S/N esq. HAVRE", "nombreNorm": "WOODLANDS SCHOOL", "localidad": ".", "series": ["BCD"], "circuitos": [909, 910, 911, 912, 913, 914, 915, 916, 917], "habilitados": 3592, "ranges": [["BCD", 8652, 9348], ["BCD", 9349, 10122], ["BCD", 10123, 10772], ["BCD", 10773, 11349], ["BCD", 11350, 11929], ["BCD", 11930, 12572], ["BCD", 12573, 13099], ["BCD", 13100, 13607], ["BCD", 13608, 14139]]}, {"localId": "montevideo-L210", "lat": -34.8846669, "lon": -56.0628045, "nombre": "LICEO Nº 15", "direccion": "LICEO Nº 15-AV. DR. ALFREDO AROCENA  1919  esq. LIEJA", "nombreNorm": "LICEO Nº 15", "localidad": ".", "series": ["BCD"], "circuitos": [918, 919, 920, 921, 922, 923], "habilitados": 2395, "ranges": [["BCD", 14140, 14625], ["BCD", 14626, 15085], ["BCD", 15086, 15542], ["BCD", 15543, 16018], ["BCD", 16019, 16479], ["BCD", 16480, 16940]]}, {"localId": "montevideo-L211", "lat": -34.8832072, "lon": -56.149119, "nombre": "CÍRCULO ALPINISTA DE MONTEVIDEO", "direccion": "CÍRCULO ALPINISTA DE MONTEVIDEO-MATEO VIDAL 3228 esq. AGUSTÍN ABREU", "nombreNorm": "CIRCULO ALPINISTA DE MONTEVIDEO", "localidad": ".", "series": ["BCE"], "circuitos": [936, 937, 938, 939], "habilitados": 1563, "ranges": [["BCE", 1, 649], ["BCE", 650, 1330], ["BCE", 1331, 1992], ["BCE", 1993, 2544]]}, {"localId": "montevideo-L212", "lat": -34.8875481, "lon": -56.1456421, "nombre": "ESCUELA Nº 13", "direccion": "ESCUELA Nº 13 - Nº 48-MATÍAS ABACÚ 2120 esq. AV. ITALIA", "nombreNorm": "ESCUELA Nº 13", "localidad": ".", "series": ["BCE"], "circuitos": [940, 941, 942, 943, 944, 945, 946, 947, 948], "habilitados": 3521, "ranges": [["BCE", 2545, 3070], ["BCE", 3071, 3584], ["BCE", 3585, 4083], ["BCE", 4084, 4564], ["BCE", 4565, 5067], ["BCE", 5068, 5524], ["BCE", 5525, 5955], ["BCE", 5956, 6398], ["BCE", 6399, 6806]]}, {"localId": "montevideo-L213", "lat": -34.882331, "lon": -56.150172, "nombre": "LICEO Nº 55", "direccion": "LICEO Nº 55-ASILO  3254 esq. AGUSTÍN ABREU", "nombreNorm": "LICEO Nº 55", "localidad": ".", "series": ["BCE"], "circuitos": [949, 950, 951, 952, 953], "habilitados": 1903, "ranges": [["BCE", 6807, 7227], ["BCE", 7228, 7637], ["BCE", 7638, 8034], ["BCE", 8035, 8429], ["BCE", 8430, 8825]]}, {"localId": "montevideo-L214", "lat": -34.8746304999999, "lon": -56.0444372, "nombre": "COLEGIO STELLA MARIS", "direccion": "COLEGIO STELLA MARIS-GRAL. MÁXIMO TAJES 7359 esq. HNO. PATRICK C KELLY", "nombreNorm": "COLEGIO STELLA MARIS", "localidad": ".", "series": ["BCF"], "circuitos": [954, 955, 956, 957, 958, 959], "habilitados": 2391, "ranges": [["BCF", 1, 654], ["BCF", 655, 1294], ["BCF", 1295, 1865], ["BCF", 1866, 2396], ["BCF", 2397, 2925], ["BCF", 2926, 3401]]}, {"localId": "montevideo-L215", "lat": -34.8778526, "lon": -56.0795346, "nombre": "THE ANGLO SCHOOL", "direccion": "THE ANGLO SCHOOL-AV. DRA. M. SALDÚN DE RODRÍGUEZ 2195 esq. GRAL. MÁXIMO TAJES", "nombreNorm": "THE ANGLO SCHOOL", "localidad": ".", "series": ["BCF"], "circuitos": [960, 961, 962, 963], "habilitados": 1599, "ranges": [["BCF", 3402, 3884], ["BCF", 3885, 4395], ["BCF", 4396, 4857], ["BCF", 4858, 5311]]}, {"localId": "montevideo-L216", "lat": -34.8738661, "lon": -56.0780943, "nombre": "COLEGIO URUGUAYAN AMERICAN SCHOOL", "direccion": "COLEGIO URUGUAYAN AMERICAN SCHOOL-AV. DRA. M. SALDÚN DE RODRÍGUEZ 2375 esq. DR. JOSÉ F. ARIAS", "nombreNorm": "COLEGIO URUGUAYAN AMERICAN SCHOOL", "localidad": ".", "series": ["BCF"], "circuitos": [964, 965], "habilitados": 800, "ranges": [["BCF", 5312, 5748], ["BCF", 5749, 6185]]}, {"localId": "montevideo-L217", "lat": -34.8775638, "lon": -56.0874655, "nombre": "COLEGIO WALDORF RUDOLF STEINER", "direccion": "COLEGIO WALDORF RUDOLF STEINER-AV. BOLIVIA 2402 esq. VERONA", "nombreNorm": "COLEGIO WALDORF RUDOLF STEINER", "localidad": ".", "series": ["BCF"], "circuitos": [966, 967, 968], "habilitados": 1197, "ranges": [["BCF", 6186, 6606], ["BCF", 6607, 7017], ["BCF", 7018, 7427]]}, {"localId": "montevideo-L218", "lat": -34.8750319, "lon": -56.0885738, "nombre": "COLEGIO HARDWOOD SCHOOL", "direccion": "COLEGIO HARDWOOD SCHOOL-SIRACUSA 2428 esq. VERONA", "nombreNorm": "COLEGIO HARDWOOD SCHOOL", "localidad": ".", "series": ["BCF"], "circuitos": [969, 970, 971, 972], "habilitados": 1531, "ranges": [["BCF", 7428, 7842], ["BCF", 7843, 8244], ["BCF", 8245, 8648], ["BCF", 8649, 9035]]}, {"localId": "montevideo-L219", "lat": -34.88148, "lon": -56.114895, "nombre": "ESCUELA Nº 317", "direccion": "ESCUELA Nº 317 -IGUÁ 4425 esq. MATAOJO", "nombreNorm": "ESCUELA Nº 317", "localidad": ".", "series": ["BCG"], "circuitos": [973, 974, 975, 976], "habilitados": 1612, "ranges": [["BCG", 1, 489], ["BCG", 490, 992], ["BCG", 993, 1474], ["BCG", 1475, 1951]]},