{"dept": "rivera", "locales": [{"localId": "rivera-L001", "lat": -30.8997318, "lon": -55.5362316, "nombre": "Escuela Nº 8", "direccion": "Escuela Nº 8 -Escuela Nº 8 ,  Dr. Anollés y Figueroa S/n", "nombreNorm": "ESCUELA Nº 8", "localidad": "RIVERA", "series": ["HAA"], "circuitos": [1, 2, 3, 4], "habilitados": 1580, "ranges": [["HAA", 1, 10090], ["HAA", 10091, 11556], ["HAA", 11557, 12789], ["HAA", 12790, 14430]]}, {"localId": "rivera-L002", "lat": -30.90082, "lon": -55.53818, "nombre": "Colegio Teresiano", "direccion": "Colegio Teresiano-Monseñor Vera 1183 esq. Joaquin suarez", "nombreNorm": "COLEGIO TERESIANO", "localidad": "RIVERA", "series": ["HAA"], "circuitos": [5, 6, 7], "habilitados": 1185, "ranges": [["HAA", 14431, 15562], ["HAA", 15563, 16554], ["HAA", 16555, 17393]]}, {"localId": "rivera-L003", "lat": -30.9009625, "lon": -55.5400825, "nombre": "INAU", "direccion": "INAU-Faustino Carambula 1167 esq. Ituzaingo", "nombreNorm": "INAU", "localidad": "RIVERA", "series": ["HAA"], "circuitos": [8], "habilitados": 394, "ranges": [["HAA", 17394, 18210]]}, {"localId": "rivera-L004", "lat": -30.902537, "lon": -55.5417128, "nombre": "Inspección Dptal. de Escuelas", "direccion": "Inspección Dptal. de Escuelas-Sarandí 714", "nombreNorm": "INSPECCION DPTAL. DE ESCUELAS", "localidad": "RIVERA", "series": ["HAA"], "circuitos": [9], "habilitados": 397, "ranges": [["HAA", 18211, 18928]]}, {"localId": "rivera-L005", "lat": -30.9030292, "lon": -55.5434273, "nombre": "M.T.S.S.", "direccion": "M.T.S.S.-Agraciada 784 esq. Lavalleja", "nombreNorm": "M.T.S.S.", "localidad": "RIVERA", "series": ["HAA"], "circuitos": [10, 11], "habilitados": 794, "ranges": [["HAA", 18929, 19613], ["HAA", 19614, 20209]]}, {"localId": "rivera-L006", "lat": -30.90476, "lon": -55.54462, "nombre": "Instituto de Formación Docente", "direccion": "Instituto de Formación Docente-Agraciada 892 esq. Diego Lamas", "nombreNorm": "INSTITUTO DE FORMACION DOCENTE", "localidad": "RIVERA", "series": ["HAA"], "circuitos": [12, 13, 14], "habilitados": 1189, "ranges": [["HAA", 20210, 20785], ["HAA", 20786, 21328], ["HAA", 21329, 21827]]}, {"localId": "rivera-L007", "lat": -30.905844, "lon": -55.544031, "nombre": "MIDES", "direccion": "MIDES-Sarandí 921 esq. Agustín Ortega", "nombreNorm": "MIDES", "localidad": "RIVERA", "series": ["HAA"], "circuitos": [15, 16, 17], "habilitados": 1187, "ranges": [["HAA", 21828, 22314], ["HAA", 22315, 22792], ["HAA", 22793, 23263]]}, {"localId": "rivera-L008", "lat": -30.9083366, "lon": -55.541985, "nombre": "Club Boulevard Lagos del Norte", "direccion": "Club Boulevard Lagos del Norte-Presidente Viera 1251 esq. Anolles", "nombreNorm": "CLUB BOULEVARD LAGOS DEL NORTE", "localidad": "RIVERA", "series": ["HAA"], "circuitos": [18, 19, 20], "habilitados": 1141, "ranges": [["HAA", 23264, 23724], ["HAA", 23725, 24153], ["HAA", 24154, 24548]]}, {"localId": "rivera-L009", "lat": -30.899818, "lon": -55.5435226, "nombre": "Escuela N°105", "direccion": "Escuela N°105-Fructuoso Rivera 642", "nombreNorm": "ESCUELA N°105", "localidad": "RIVERA", "series": ["HAB"], "circuitos": [21, 22, 23], "habilitados": 1200, "ranges": [["HAB", 1, 20910], ["HAB", 20911, 24116], ["HAB", 24117, 26631]]}, {"localId": "rivera-L010", "lat": -30.8995563, "lon": -55.5447339, "nombre": "Liceo N°1", "direccion": "Liceo N°1-Nieto Clavera S/N esq. Artigas", "nombreNorm": "LICEO N°1", "localidad": "RIVERA", "series": ["HAB"], "circuitos": [24, 25, 26, 27, 28, 29, 30, 31, 32, 33], "habilitados": 4007, "ranges": [["HAB", 26632, 28204], ["HAB", 28205, 29824], ["HAB", 29825, 31143], ["HAB", 31144, 32366], ["HAB", 32367, 33374], ["HAB", 33375, 34617], ["HAB", 34618, 35861], ["HAB", 35862, 37235], ["HAB", 37236, 38452], ["HAB", 38453, 39685]]}, {"localId": "rivera-L011", "lat": -30.8990458, "lon": -55.5436001, "nombre": "Escuela N°2", "direccion": "Escuela N°2 -Gral. Artigas 926 esq. Fructuoso Rivera", "nombreNorm": "ESCUELA N°2", "localidad": "RIVERA", "series": ["HAB"], "circuitos": [34, 35, 36, 37, 38, 39], "habilitados": 2385, "ranges": [["HAB", 39686, 41348], ["HAB", 41349, 42296], ["HAB", 42297, 43245], ["HAB", 43246, 44230], ["HAB", 44231, 45441], ["HAB", 45442, 46612]]}, {"localId": "rivera-L012", "lat": -30.9000534, "lon": -55.5437088, "nombre": "Escuela N° 1", "direccion": "Escuela N° 1-Jose E. Rodó 927", "nombreNorm": "ESCUELA N° 1", "localidad": "RIVERA", "series": ["HAB"], "circuitos": [40, 41, 42, 43, 44], "habilitados": 2007, "ranges": [["HAB", 46613, 47568], ["HAB", 47569, 48553], ["HAB", 48554, 49429], ["HAB", 49430, 50364], ["HAB", 50365, 51192]]}, {"localId": "rivera-L013", "lat": -30.9009368, "lon": -55.544512, "nombre": "Liceo N°6", "direccion": "Liceo N°6 -Fructuoso Rivera S/N esq. Florencio Sanchez", "nombreNorm": "LICEO N°6", "localidad": "RIVERA", "series": ["HAB"], "circuitos": [45, 46, 47, 48, 49, 50], "habilitados": 2393, "ranges": [["HAB", 51193, 51960], ["HAB", 51961, 52705], ["HAB", 52706, 53412], ["HAB", 53413, 54251], ["HAB", 54252, 55035], ["HAB", 55036, 55751]]}, {"localId": "rivera-L014", "lat": -30.9010442, "lon": -55.5460369, "nombre": "UTU Escuela Técnica", "direccion": "UTU Escuela Técnica-Pantaleón Quesada 770 esq. Brasil", "nombreNorm": "UTU ESCUELA TECNICA", "localidad": "RIVERA", "series": ["HAB"], "circuitos": [51, 52, 53, 54, 55, 56, 57], "habilitados": 2800, "ranges": [["HAB", 55752, 56422], ["HAB", 56423, 57109], ["HAB", 57110, 57758], ["HAB", 57759, 58354], ["HAB", 58355, 58928], ["HAB", 58929, 59482], ["HAB", 59483, 60047]]}, {"localId": "rivera-L015", "lat": -30.898512, "lon": -55.5543537, "nombre": "Escuela N°132", "direccion": "Escuela N°132-Presidente Viera 504 esq. Jose P Varela", "nombreNorm": "ESCUELA N°132", "localidad": "RIVERA", "series": ["HAB"], "circuitos": [58, 59], "habilitados": 801, "ranges": [["HAB", 60048, 60605], ["HAB", 60606, 61158]]}, {"localId": "rivera-L016", "lat": -30.8989357, "lon": -55.5459127, "nombre": "Escuela N° 7", "direccion": "Escuela N° 7-Jose P Varela 849", "nombreNorm": "ESCUELA N° 7", "localidad": "RIVERA", "series": ["HAB"], "circuitos": [60, 61, 62, 63], "habilitados": 1601, "ranges": [["HAB", 61159, 61696], ["HAB", 61697, 62254], ["HAB", 62255, 62792], ["HAB", 62793, 63312]]}, {"localId": "rivera-L017", "lat": -30.9008048, "lon": -55.5452492, "nombre": "Centro de Retirados Militares", "direccion": "Centro de Retirados Militares-Ansina 735", "nombreNorm": "CENTRO DE RETIRADOS MILITARES", "localidad": "RIVERA", "series": ["HAB"], "circuitos": [64, 65], "habilitados": 799, "ranges": [["HAB", 63313, 63822], ["HAB", 63823, 64327]]}, {"localId": "rivera-L018", "lat": -30.9095339, "lon": -55.5278999, "nombre": "Liceo N°2", "direccion": "Liceo N°2 -Florencio Sánchez S/N esq. Av. Cuaro", "nombreNorm": "LICEO N°2", "localidad": "RIVERA", "series": ["HAB"], "circuitos": [66, 67, 68], "habilitados": 1204, "ranges": [["HAB", 64328, 64817], ["HAB", 64818, 65300], ["HAB", 65301, 65775]]}, {"localId": "rivera-L019", "lat": -30.8938678, "lon": -55.5578037, "nombre": "Liceo N°5", "direccion": "Liceo N°5 -Fernando Segarra 713 esq. Florencio Sanchez", "nombreNorm": "LICEO N°5", "localidad": "RIVERA", "series": ["HAB"], "circuitos": [69, 70, 71], "habilitados": 1202, "ranges": [["HAB", 65776, 66238], ["HAB", 66239, 66714], ["HAB", 66715, 67168]]}, {"localId": "rivera-L020", "lat": -30.8895719, "lon": -55.5571262, "nombre": "Escuela N°120", "direccion": "Escuela N°120-Carambula y MIguel Aristegui S/N esq. Miguel Aristegui", "nombreNorm": "ESCUELA N°120", "localidad": "RIVERA", "series": ["HAB"], "circuitos": [72, 73], "habilitados": 800, "ranges": [["HAB", 67169, 67610], ["HAB", 67611, 68029]]}, {"localId": "rivera-L021", "lat": -30.8858979, "lon": -55.5522744, "nombre": "Escuela N°5", "direccion": "Escuela N°5-Cuaró 261 esq. Enrique Cottens", "nombreNorm": "ESCUELA N°5", "localidad": "RIVERA", "series": ["HAB"], "circuitos": [74, 75, 76], "habilitados": 1119, "ranges": [["HAB", 68030, 68456], ["HAB", 68457, 68867], ["HAB", 68868, 69271]]}, {"localId": "rivera-L022", "lat": -30.8996093, "lon": -55.5426449, "nombre": "Escuela N°9", "direccion": "Escuela N°9-Monseñor Vera S/N esq. Avda. Líbano", "nombreNorm": "ESCUELA N°9", "localidad": "RIVERA", "series": ["HBA"], "circuitos": [77, 78, 79, 80, 81], "habilitados": 1980, "ranges": [["HBA", 1, 9869], ["HBA", 9870, 12316], ["HBA", 12317, 13847], ["HBA", 13848, 15276], ["HBA", 15277, 16678]]}, {"localId": "rivera-L023", "lat": -30.9034919, "lon": -55.5103526, "nombre": "Escuela N°113", "direccion": "Escuela N°113-Dionisio Chosoni 401 esq. Yamandú", "nombreNorm": "ESCUELA N°113", "localidad": "RIVERA", "series": ["HBA"], "circuitos": [82, 83, 84, 85, 86], "habilitados": 1974, "ranges": [["HBA", 16679, 18227], ["HBA", 18228, 19873], ["HBA", 19874, 20997], ["HBA", 20998, 22305], ["HBA", 22306, 23606]]}, {"localId": "rivera-L024", "lat": -30.90402, "lon": -55.52443, "nombre": "CAIF El Ombú", "direccion": "CAIF El Ombú-Yamandu 175 esq. Jose Siñeriz", "nombreNorm": "CAIF EL OMBU", "localidad": "RIVERA", "series": ["HBA"], "circuitos": [87, 88, 89], "habilitados": 1179, "ranges": [["HBA", 23607, 24744], ["HBA", 24745, 25717], ["HBA", 25718, 26679]]}, {"localId": "rivera-L025", "lat": -30.9069566, "lon": -55.5155484, "nombre": "Escuela N°86", "direccion": "Escuela N°86-Eduardo Pacharotti 793 esq. Altivo Esteves", "nombreNorm": "ESCUELA N°86", "localidad": "RIVERA", "series": ["HBA"], "circuitos": [90, 91, 92, 93, 94], "habilitados": 1964, "ranges": [["HBA", 26680, 27571], ["HBA", 27572, 28409], ["HBA", 28410, 29189], ["HBA", 29190, 29918], ["HBA", 29919, 30578]]}, {"localId": "rivera-L026", "lat": -30.9145055, "lon": -55.5394532, "nombre": "Escuela N°109", "direccion": "Escuela N°109-Reyles 1548 esq. Luis Alberto de Herrera", "nombreNorm": "ESCUELA N°109", "localidad": "RIVERA", "series": ["HBA"], "circuitos": [95, 96], "habilitados": 797, "ranges": [["HBA", 30579, 31147], ["HBA", 31148, 31714]]}, {"localId": "rivera-L027", "lat": -30.9086467, "lon": -55.5376117, "nombre": "Liceo N°3", "direccion": "Liceo N°3-Tranqueras 853 esq. Reyles", "nombreNorm": "LICEO N°3", "localidad": "RIVERA", "series": ["HBA"], "circuitos": [97, 98, 99, 100], "habilitados": 1584, "ranges": [["HBA", 31715, 32255], ["HBA", 32256, 32799], ["HBA", 32800, 33311], ["HBA", 33312, 33797]]}, {"localId": "rivera-L028", "lat": -30.9158698, "lon": -55.5418787, "nombre": "Liceo N°7", "direccion": "Liceo N°7 -Diego Lamas 1460 esq. Tranqueras", "nombreNorm": "LICEO N°7", "localidad": "RIVERA", "series": ["HBA"], "circuitos": [101, 102, 103, 104, 105, 106, 107], "habilitados": 2736, "ranges": [["HBA", 33798, 34277], ["HBA", 34278, 34764], ["HBA", 34765, 35217], ["HBA", 35218, 35670], ["HBA", 35671, 36123], ["HBA", 36124, 36550], ["HBA", 36551, 36942]]}, {"localId": "rivera-L029", "lat": -30.9161857, "lon": -55.5699084, "nombre": "Escuela N°128", "direccion": "Escuela N°128-Francisco Serralta 2105 esq. Antonio Maria Marquez", "nombreNorm": "ESCUELA N°128", "localidad": "RIVERA", "series": ["HBB"], "circuitos": [108, 109, 110, 111, 112, 113], "habilitados": 2368, "ranges": [["HBB", 1, 1987], ["HBB", 1988, 2958], ["HBB", 2959, 3826], ["HBB", 3827, 4602], ["HBB", 4603, 5312], ["HBB", 5313, 5962]]}, {"localId": "rivera-L030", "lat": -30.9176628, "lon": -55.5727227, "nombre": "Escuela N°153", "direccion": "Escuela N°153 -Martin Pays S/N esq. Martin Garragorry", "nombreNorm": "ESCUELA N°153", "localidad": "RIVERA", "series": ["HBB"], "circuitos": [114, 115, 116, 117], "habilitados": 1589, "ranges": [["HBB", 5963, 6549], ["HBB", 6550, 7073], ["HBB", 7074, 7600], ["HBB", 7601, 8161]]}, {"localId": "rivera-L031", "lat": -30.9184973, "lon": -55.5422252, "nombre": "Escuela N°94", "direccion": "Escuela N°94-Guido Machado Brum 2389 esq. 1ro de Octubre", "nombreNorm": "ESCUELA N°94", "localidad": "RIVERA", "series": ["HBB"], "circuitos": [118, 119, 120, 121], "habilitados": 1584, "ranges": [["HBB", 8162, 8675], ["HBB", 8676, 9202], ["HBB", 9203, 9718], ["HBB", 9719, 10222]]}, {"localId": "rivera-L032", "lat": -30.9279508, "lon": -55.5495021, "nombre": "Campus", "direccion": "Campus - Centro Universitario de Rivera-Guido Machado Brum Km 496 esq. Melchora Cuenca", "nombreNorm": "CAMPUS", "localidad": "RIVERA", "series": ["HBB"], "circuitos": [122, 123, 124, 125], "habilitados": 1593, "ranges": [["HBB", 10223, 10718], ["HBB", 10719, 11193], ["HBB", 11194, 11654], ["HBB", 11655, 12106]]}, {"localId": "rivera-L033", "lat": -30.9257444, "lon": -55.5484625, "nombre": "Liceo N°8", "direccion": "Liceo N°8-Sergio Martinez 2514 esq. Serafin J Garcia", "nombreNorm": "LICEO N°8", "localidad": "RIVERA", "series": ["HBB"], "circuitos": [126, 127], "habilitados": 750, "ranges": [["HBB", 12107, 12529], ["HBB", 12530, 12936]]}, {"localId": "rivera-L034", "lat": -30.8965698, "lon": -55.5525761, "nombre": "Escuela N°150", "direccion": "Escuela N°150-Jose Pedro Varela S/N esq. Los Tulipanes", "nombreNorm": "ESCUELA N°150", "localidad": "RIVERA", "series": ["HBC"], "circuitos": [128, 129], "habilitados": 490, "ranges": [["HBC", 1, 1743], ["HBC", 1744, 2034]]}, {"localId": "rivera-L035", "lat": -30.9203817, "lon": -55.57458, "nombre": "Escuela N°96", "direccion": "Escuela N°96-Carlos Vaz Ferreira 202", "nombreNorm": "ESCUELA N°96", "localidad": "RIVERA", "series": ["HBD"], "circuitos": [130, 131], "habilitados": 787, "ranges": [["HBD", 1, 2709], ["HBD", 2710, 3696]]}, {"localId": "rivera-L036", "lat": -30.912486, "lon": -55.5619782, "nombre": "Liceo N°4", "direccion": "Liceo N°4-Luis Maria Techera S/N", "nombreNorm": "LICEO N°4", "localidad": "RIVERA", "series": ["HBD"], "circuitos": [132, 133, 134, 135, 136, 137], "habilitados": 2348, "ranges": [["HBD", 3697, 4553], ["HBD", 4554, 5235], ["HBD", 5236, 5913], ["HBD", 5914, 6495], ["HBD", 6496, 7024], ["HBD", 7025, 7567]]}, {"localId": "rivera-L037", "lat": -30.9055663, "lon": -55.5443043, "nombre": "Escuela N°64", "direccion": "Escuela N°64 -Telmo Eula S/N esq. M. Calleros", "nombreNorm": "ESCUELA N°64", "localidad": "RIVERA", "series": ["HBD"], "circuitos": [138, 139, 140, 141, 142, 143], "habilitados": 2351, "ranges": [["HBD", 7568, 8104], ["HBD", 8105, 8606], ["HBD", 8607, 9085], ["HBD", 9086, 9567], ["HBD", 9568, 10022], ["HBD", 10023, 10462]]}, {"localId": "rivera-L038", "lat": -30.9126417, "lon": -55.5667054, "nombre": "Caif Santa Isabel", "direccion": "Caif Santa Isabel-Damaso A Larrañaga 170", "nombreNorm": "CAIF SANTA ISABEL", "localidad": "RIVERA", "series": ["HBD"], "circuitos": [144], "habilitados": 371, "ranges": [["HBD", 10463, 10866]]}, {"localId": "rivera-L039", "lat": -30.878565, "lon": -55.556497, "nombre": "Jardín N°152", "direccion": "Jardín N°152-M. Lavalleja 187", "nombreNorm": "JARDIN N°152", "localidad": "RIVERA", "series": ["HBE"], "circuitos": [145, 146, 147, 148], "habilitados": 1594, "ranges": [["HBE", 1, 4234], ["HBE", 4235, 5594], ["HBE", 5595, 6761], ["HBE", 6762, 7641]]}, {"localId": "rivera-L040", "lat": -30.87945, "lon": -55.555166, "nombre": "Escuela N°88", "direccion": "Escuela N°88-Simon del Pino 204", "nombreNorm": "ESCUELA N°88", "localidad": "RIVERA", "series": ["HBE"], "circuitos": [149, 150, 151], "habilitados": 1205, "ranges": [["HBE", 7642, 8515], ["HBE", 8516, 9489], ["HBE", 9490, 10068]]}, {"localId": "rivera-L041", "lat": -30.876177, "lon": -55.558205, "nombre": "U.T.U. N°2", "direccion": "U.T.U. N°2-Bernabé Rivera s/n", "nombreNorm": "U.T.U. N°2", "localidad": "RIVERA", "series": ["HBE"], "circuitos": [152, 153], "habilitados": 799, "ranges": [["HBE", 10069, 10646], ["HBE", 10647, 11185]]}, {"localId": "rivera-L042", "lat": -30.878302, "lon": -55.558769, "nombre": "Centro Barrial Sonia", "direccion": "Centro Barrial Sonia-M. Melendez y Gregorio Sanabria S/N", "nombreNorm": "CENTRO BARRIAL SONIA", "localidad": "RIVERA", "series": ["HBE"], "circuitos": [154, 155], "habilitados": 800, "ranges": [["HBE", 11186, 11686], ["HBE", 11687, 12173]]}, {"localId": "rivera-L043", "lat": -30.882345, "lon": -55.5573467, "nombre": "Caif 33 Orientales", "direccion": "Caif 33 Orientales-Simon del Pino 251", "nombreNorm": "CAIF 33 ORIENTALES", "localidad": "RIVERA", "series": ["HBE"], "circuitos": [156, 157], "habilitados": 798, "ranges": [["HBE", 12174, 12661], ["HBE", 12662, 13116]]}, {"localId": "rivera-L044", "lat": -30.898306, "lon": -55.5429034, "nombre": "Policlínica Lagunón", "direccion": "Policlínica Lagunón-Chasque de los Santos S/N", "nombreNorm": "POLICLINICA LAGUNON", "localidad": "RIVERA", "series": ["HBE"], "circuitos": [158], "habilitados": 372, "ranges": [["HBE", 13117, 13527]]}, {"localId": "rivera-L045", "lat": -30.9108476, "lon": -55.541672, "nombre": "Escuela N°110", "direccion": "Escuela N°110-Misiones 1330 esq. Jose Royol", "nombreNorm": "ESCUELA N°110", "localidad": "RIVERA", "series": ["HBF"], "circuitos": [159, 160, 161], "habilitados": 1159, "ranges": [["HBF", 1, 709], ["HBF", 710, 1311], ["HBF", 1312, 1894]]}, {"localId": "rivera-L046", "lat": -30.9141581, "lon": -55.5389603, "nombre": "Escuela N°44", "direccion": "Escuela N°44-Luis Alberto de Herrera S/N esq. 12 de Octubre", "nombreNorm": "ESCUELA N°44", "localidad": "RIVERA", "series": ["HBF"], "circuitos": [162, 163, 164, 165, 166], "habilitados": 1917, "ranges": [["HBF", 1895, 2421], ["HBF", 2422, 2951], ["HBF", 2952, 3456], ["HBF", 3457, 3926], ["HBF", 3927, 4410]]}, {"localId": "rivera-L047", "lat": -30.91945, "lon": -55.53835, "nombre": "Escuela N°112", "direccion": "Escuela N°112-Domingo Arena 1540 esq. Ernesto P. Sosa", "nombreNorm": "ESCUELA N°112", "localidad": "RIVERA", "series": ["HBF"], "circuitos": [167, 168], "habilitados": 762, "ranges": [["HBF", 4411, 4867], ["HBF", 4868, 5300]]}, {"localId": "rivera-L048", "lat": -30.9160804, "lon": -55.5415322, "nombre": "Centros Educativos de Capacitacion de Arte y Produccion (CECAP)", "direccion": "Centros Educativos de Capacitacion de Arte y Produccion (CECAP)-Domingo A. Lor 1625 esq. Emilio Frugoni", "nombreNorm": "CENTROS EDUCATIVOS DE CAPACITACION DE ARTE Y PRODUCCION (CECAP)", "localidad": "RIVERA", "series": ["HBF"], "circuitos": [169], "habilitados": 356, "ranges": [["HBF", 5301, 5687]]}, {"localId": "rivera-L049", "lat": -30.9012981, "lon": -55.5353097, "nombre": "Escuela N°111", "direccion": "Escuela N°111-Juan Acosta  S/N esq. Luciano Romero", "nombreNorm": "ESCUELA N°111", "localidad": "RIVERA", "series": ["HBG"], "circuitos": [170, 171, 172, 173], "habilitados": 1555, "ranges": [["HBG", 1, 645], ["HBG", 646, 1215], ["HBG", 1216, 1776], ["HBG", 1777, 2318]]}, {"localId": "rivera-L050", "lat": -30.9054001, "lon": -55.5503496, "nombre": "Jardín N° 155", "direccion": "Jardín N° 155-Raul E. Tal  S/N esq. Juan Acosta", "nombreNorm": "JARDIN N° 155", "localidad": "RIVERA", "series": ["HBG"], "circuitos": [174, 175, 176], "habilitados": 1173, "ranges": [["HBG", 2319, 2806], ["HBG", 2807, 3302], ["HBG", 3303, 3789]]}, {"localId": "rivera-L051", "lat": -30.892509, "lon": -55.5626714, "nombre": "Escuela N°45", "direccion": "Escuela N°45-Andresito  S/N esq. Aparicio Saravia", "nombreNorm": "ESCUELA N°45", "localidad": "RIVERA", "series": ["HBG"], "circuitos": [177, 178, 179, 180], "habilitados": 1567, "ranges": [["HBG", 3790, 4249], ["HBG", 4250, 4693], ["HBG", 4694, 5125], ["HBG", 5126, 5554]]}, {"localId": "rivera-L052", "lat": -30.8767017, "lon": -55.5868247, "nombre": "Caif  Tres Cruces.", "direccion": "Caif  Tres Cruces.-Presidente Giro 1509", "nombreNorm": "CAIF  TRES CRUCES.", "localidad": "RIVERA", "series": ["HBG"], "circuitos": [181], "habilitados": 350, "ranges": [["HBG", 5555, 5944]]}, {"localId": "rivera-L053", "lat": -31.093863, "lon": -55.690204, "nombre": "Escuela N°61", "direccion": "Escuela N°61-Camino Churchill s/n", "nombreNorm": "ESCUELA N°61", "localidad": "ESTACIÓN ATAQUES", "series": ["HCA"], "circuitos": [182], "habilitados": 185, "ranges": [["HCA", 1, 1722]]}, {"localId": "rivera-L054", "lat": -30.938064721291443, "lon": -55.55291876754065, "nombre": "Escuela N°19", "direccion": "Escuela N°19-Camino Vecinal s/n", "nombreNorm": "ESCUELA N°19", "localidad": "CERRO SOLITO", "series": ["HCB"], "circuitos": [183], "habilitados": 97, "ranges": [["HCB", 1, 1428]]}, {"localId": "rivera-L055", "lat": -31.11321, "lon": -55.45582, "nombre": "Escuela N°3", "direccion": "Escuela N°3-Elena Navarro 760", "nombreNorm": "ESCUELA N°3", "localidad": "TRANQUERAS", "series": ["HCC"], "circuitos": [184, 185, 186, 187], "habilitados": 1177, "ranges": [["HCC", 1, 6771], ["HCC", 6772, 7891], ["HCC", 7892, 8765], ["HCC", 8766, 9560]]}, {"localId": "rivera-L056", "lat": -31.11343, "lon": -55.45597, "nombre": "Jardín N°138", "direccion": "Jardín N°138-Elena Navarro s/n esq. Agraciada", "nombreNorm": "JARDIN N°138", "localidad": "TRANQUERAS", "series": ["HCC"], "circuitos": [188, 189, 190, 191], "habilitados": 1171, "ranges": [["HCC", 9561, 10324], ["HCC", 10325, 10932], ["HCC", 10933, 11496], ["HCC", 11497, 12003]]}, {"localId": "rivera-L057", "lat": -31.112796, "lon": -55.460265, "nombre": "Liceo N° 1", "direccion": "Liceo N° 1-Dr. Juan Dellepiane 578 esq. Gral. Rivera", "nombreNorm": "LICEO N° 1", "localidad": "TRANQUERAS", "series": ["HCC"], "circuitos": [192, 193, 194, 195], "habilitados": 1173, "ranges": [["HCC", 12004, 12527], ["HCC", 12528, 13009], ["HCC", 13010, 13472], ["HCC", 13473, 13860]]}, {"localId": "rivera-L058", "lat": -31.11256, "lon": -55.45539, "nombre": "Liceo N° 2", "direccion": "Liceo N° 2-25 de agosto 660 esq. Elena Navarro", "nombreNorm": "LICEO N° 2", "localidad": "TRANQUERAS", "series": ["HCC"], "circuitos": [196, 197, 198, 199, 200, 201], "habilitados": 1775, "ranges": [["HCC", 13861, 14251], ["HCC", 14252, 14625], ["HCC", 14626, 15001], ["HCC", 15002, 15373], ["HCC", 15374, 15715], ["HCC", 15716, 16055]]}, {"localId": "rivera-L059", "lat": -31.11162, "lon": -55.46216, "nombre": "Escuela N°124", "direccion": "Escuela N°124 -San Martín 385 esq. Bernardo Lacoste", "nombreNorm": "ESCUELA N°124", "localidad": "TRANQUERAS", "series": ["HCC"], "circuitos": [202, 203, 204, 205], "habilitados": 1138, "ranges": [["HCC", 16056, 16386], ["HCC", 16387, 16713], ["HCC", 16714, 17016], ["HCC", 17017, 17302]]}, {"localId": "rivera-L060", "lat": -31.1005, "lon": -55.524, "nombre": "Escuela N°22", "direccion": "Escuela N°22-Camino Vecinal s/n", "nombreNorm": "ESCUELA N°22", "localidad": "RUBIO CHICO", "series": ["HCD"], "circuitos": [206], "habilitados": 199, "ranges": [["HCD", 1, 2361]]}, {"localId": "rivera-L061", "lat": -31.18166, "lon": -55.40333, "nombre": "Escuela N°76", "direccion": "Escuela N°76-Ruta 5 km 452 s/n", "nombreNorm": "ESCUELA N°76", "localidad": "CERRO ALEGRE", "series": ["HCE"], "circuitos": [207], "habilitados": 168, "ranges": [["HCE", 1, 1648]]}, {"localId": "rivera-L062", "lat": -30.96905, "lon": -55.60093, "nombre": "Escuela N°40", "direccion": "Escuela N°40-Camino Estación Ataques y Vía Ferrea s/n", "nombreNorm": "ESCUELA N°40", "localidad": "CURTICEIRAS", "series": ["HCF"], "circuitos": [208, 209], "habilitados": 461, "ranges": [["HCF", 1, 1435], ["HCF", 1436, 1707]]}, {"localId": "rivera-L063", "lat": -31.083730762105, "lon": -56.00273151268817, "nombre": "Salón Comunal MEVIR", "direccion": "Salón Comunal MEVIR-Masoller s/n", "nombreNorm": "SALON COMUNAL MEVIR", "localidad": "MASOLLER", "series": ["HCG"], "circuitos": [210], "habilitados": 286, "ranges": [["HCG", 1, 403]]}, {"localId": "rivera-L064", "lat": -31.5332856, "lon": -55.6631951, "nombre": "Escuela N°70", "direccion": "Escuela N°70-Paso Manuel Díaz", "nombreNorm": "ESCUELA N°70", "localidad": "PASO MANUEL DÍAZ", "series": ["HDA"], "circuitos": [211], "habilitados": 102, "ranges": [["HDA", 1, 777]]}, {"localId": "rivera-L065", "lat": -31.5747449, "lon": -55.4694232, "nombre": "Centro Cultural MEC", "direccion": "Centro Cultural MEC-Dr. Davinson S/N esq. Hermanos Birabén", "nombreNorm": "CENTRO CULTURAL MEC", "localidad": "MINAS DE CORRALES", "series": ["HDB"], "circuitos": [212], "habilitados": 291, "ranges": [["HDB", 1, 6157]]}, {"localId": "rivera-L066", "lat": -31.5747449, "lon": -55.4694232, "nombre": "Alcaldía", "direccion": "Alcaldía-Dr. Davinson S/N esq. Hermanos Birabén", "nombreNorm": "ALCALDIA", "localidad": "MINAS DE CORRALES", "series": ["HDB"], "circuitos": [213, 214], "habilitados": 595, "ranges": [["HDB", 6158, 7065], ["HDB", 7066, 7761]]}, {"localId": "rivera-L067", "lat": -31.574171, "lon": -55.4740337, "nombre": "Escuela N°4", "direccion": "Escuela N°4-Hermanos Birabent S/N esq. 12 de octubre", "nombreNorm": "ESCUELA N°4", "localidad": "MINAS DE CORRALES", "series": ["HDB"], "circuitos": [215, 216, 217, 218, 219], "habilitados": 1492, "ranges": [["HDB", 7762, 8332], ["HDB", 8333, 8793], ["HDB", 8794, 9229], ["HDB", 9230, 9629], ["HDB", 9630, 10010]]}, {"localId": "rivera-L068", "lat": -31.569005, "lon": -55.4757215, "nombre": "Liceo MdC", "direccion": "Liceo MdC-Dr. Davinson S/N esq. Juan Carlos Lockhart", "nombreNorm": "LICEO MDC", "localidad": "MINAS DE CORRALES", "series": ["HDB"], "circuitos": [220, 221, 222], "habilitados": 882, "ranges": [["HDB", 10011, 10350], ["HDB", 10351, 10678], ["HDB", 10679, 10982]]}, {"localId": "rivera-L069", "lat": -31.3933069, "lon": -55.3941812, "nombre": "Escuela N°13", "direccion": "Escuela N°13 -Cerros de la Calera S/N", "nombreNorm": "ESCUELA N°13", "localidad": "CERROS DE LA CALERA", "series": ["HDC"], "circuitos": [223], "habilitados": 203, "ranges": [["HDC", 1, 2517]]}, {"localId": "rivera-L070", "lat": -31.2099607, "lon": -55.3575025, "nombre": "Escuela N°72", "direccion": "Escuela N°72-Paso de Ataques", "nombreNorm": "ESCUELA N°72", "localidad": "PASO DE ATAQUES", "series": ["HDD"], "circuitos": [224, 225], "habilitados": 436, "ranges": [["HDD", 1, 1744], ["HDD", 1745, 2030]]}, {"localId": "rivera-L071", "lat": -31.3300916, "lon": -55.0650151, "nombre": "Escuela N°65", "direccion": "Escuela N°65-Villa Indart", "nombreNorm": "ESCUELA N°65", "localidad": "VILLA INDART", "series": ["HDE"], "circuitos": [226], "habilitados": 87, "ranges": [["HDE", 1, 796]]}, {"localId": "rivera-L072", "lat": -31.4722328, "lon": -55.156399, "nombre": "Liceo Cerro Pelado", "direccion": "Liceo Cerro Pelado-Cerro Pelado", "nombreNorm": "LICEO CERRO PELADO", "localidad": "CERRO PELADO", "series": ["HEA"], "circuitos": [227], "habilitados": 172, "ranges": [["HEA", 1, 1373]]}, {"localId": "rivera-L073", "lat": -31.4723278, "lon": -55.1563595, "nombre": "Escuela N°14", "direccion": "Escuela N°14-Cerro Pelado", "nombreNorm": "ESCUELA N°14", "localidad": "CERRO PELADO", "series": ["HEA"], "circuitos": [228], "habilitados": 173, "ranges": [["HEA", 1374, 1589]]}, {"localId": "rivera-L074", "lat": -31.606011, "lon": -55.1031124, "nombre": "Escuela N°10", "direccion": "Escuela N°10 -Amarillo", "nombreNorm": "ESCUELA N°10", "localidad": "AMARILLO", "series": ["HEB"], "circuitos": [229], "habilitados": 195, "ranges": [["HEB", 1, 1631]]}, {"localId": "rivera-L075", "lat": -31.7768941, "lon": -55.2006777, "nombre": "Escuela N°18", "direccion": "Escuela N°18-Pueblo de las Flores", "nombreNorm": "ESCUELA N°18", "localidad": "PUEBLO DE LAS FLORES", "series": ["HEC"], "circuitos": [230, 231], "habilitados": 417, "ranges": [["HEC", 1, 1875], ["HEC", 1876, 2176]]}, {"localId": "rivera-L076", "lat": -31.6062787, "lon": -55.093966, "nombre": "Escuela N°27", "direccion": "Escuela N°27-Carpintería de Yaguarí", "nombreNorm": "ESCUELA N°27", "localidad": "CARPINTERÍA DE YAGUARÍ", "series": ["HED"], "circuitos": [232], "habilitados": 45, "ranges": [["HED", 1, 992]]}, {"localId": "rivera-L077", "lat": -31.4242861, "lon": -55.2347249, "nombre": "Escuela N°35", "direccion": "Escuela N°35-Blanquillos", "nombreNorm": "ESCUELA N°35", "localidad": "BLANQUILLOS", "series": ["HEE"], "circuitos": [233], "habilitados": 34, "ranges": [["HEE", 1, 1204]]}, {"localId": "rivera-L078", "lat": -31.6576929, "lon": -55.4241766, "nombre": "Escuela N°48", "direccion": "Escuela N°48-Laureles al Sur", "nombreNorm": "ESCUELA N°48", "localidad": "LAURELES AL SUR", "series": ["HEF"], "circuitos": [234], "habilitados": 192, "ranges": [["HEF", 1, 2747]]}, {"localId": "rivera-L079", "lat": -31.467386, "lon": -54.964583, "nombre": "Escuela N°11", "direccion": "Escuela N°11-PASO LA PUENTE S/N esq. Camino viejo", "nombreNorm": "ESCUELA N°11", "localidad": "PASO DE LA PUENTE", "series": ["HFA"], "circuitos": [235, 236], "habilitados": 304, "ranges": [["HFA", 1, 2438], ["HFA", 2439, 2626]]}, {"localId": "rivera-L080", "lat": -31.603466, "lon": -54.975017, "nombre": "Escuela N°23", "direccion": "Escuela N°23-MOIRONES S/N esq. camino vecinal", "nombreNorm": "ESCUELA N°23", "localidad": "MOIRONES", "series": ["HFB"], "circuitos": [237, 238], "habilitados": 313, "ranges": [["HFB", 1, 1338], ["HFB", 1339, 1520]]}, {"localId": "rivera-L081", "lat": -31.801365, "lon": -55.020007, "nombre": "Escuela N°81", "direccion": "Escuela N°81-ABROJAL S/N esq. Camino Vecinal", "nombreNorm": "ESCUELA N°81", "localidad": "ABROJAL", "series": ["HFC"], "circuitos": [239], "habilitados": 119, "ranges": [["HFC", 1, 1494]]}, {"localId": "rivera-L082", "lat": -31.622362, "lon": -54.798897, "nombre": "Escuela N°50", "direccion": "Escuela N°50-ARROYO BLANCO S/N esq. Prox. a Calle Leopoldo Díaz", "nombreNorm": "ESCUELA N°50", "localidad": "ARROYO BLANCO", "series": ["HFD"], "circuitos": [240], "habilitados": 121, "ranges": [["HFD", 1, 1179]]}, {"localId": "rivera-L083", "lat": -31.816216, "lon": -54.759235, "nombre": "Escuela N°32", "direccion": "Escuela N°32-ALBORADA S/N esq. Esquina con camino vecinal", "nombreNorm": "ESCUELA N°32", "localidad": "ALBORADA", "series": ["HFE"], "circuitos": [241], "habilitados": 165, "ranges": [["HFE", 1, 2746]]}, {"localId": "rivera-L084", "lat": -32.014619, "lon": -54.582801, "nombre": "Escuela N°125", "direccion": "Escuela N°125-PUEBLO DE LOS SANTOS S/N esq. Camino vecinal", "nombreNorm": "ESCUELA N°125", "localidad": "PUEBLO DE LOS SANTOS", "series": ["HFF"], "circuitos": [242], "habilitados": 45, "ranges": [["HFF", 1, 1169]]}, {"localId": "rivera-L085", "lat": -31.778227, "lon": -54.691298, "nombre": "Liceo Local", "direccion": "Liceo Local- Bvar. Artigas - VICHADERO 275 esq. Figueroa", "nombreNorm": "LICEO LOCAL", "localidad": "VICHADERO", "series": ["HFG"], "circuitos": [243, 244, 245, 246], "habilitados": 1182, "ranges": [["HFG", 1, 3133], ["HFG", 3134, 3967], ["HFG", 3968, 4686], ["HFG", 4687, 5284]]}, {"localId": "rivera-L086", "lat": -31.78056, "lon": -54.691387, "nombre": "Escuela N°24", "direccion": "Escuela N°24-Blvd. Gral. Jose Artigas - Vichadero 40003 esq. Ituzaingó", "nombreNorm": "ESCUELA N°24", "localidad": "VICHADERO", "series": ["HFG"], "circuitos": [247, 248, 249, 250, 251], "habilitados": 1476, "ranges": [["HFG", 5285, 5870], ["HFG", 5871, 6401], ["HFG", 6402, 6830], ["HFG", 6831, 7241], ["HFG", 7242, 7615]]}, {"localId": "rivera-L087", "lat": -31.778691, "lon": -54.694272, "nombre": "Escuela Técnica", "direccion": "Escuela Técnica-Presidente Kennedy - VICHADERO 423  esq. 33 Orientales", "nombreNorm": "ESCUELA TECNICA", "localidad": "VICHADERO", "series": ["HFG"], "circuitos": [252, 253], "habilitados": 594, "ranges": [["HFG", 7616, 7967], ["HFG", 7968, 8280]]}, {"localId": "rivera-L088", "lat": -31.775818, "lon": -54.687779, "nombre": "Sala de Cultura", "direccion": "Sala de Cultura-Blvd. Gral. Jose Gral. Artigas - VICHADERO 9009  esq. Rivera", "nombreNorm": "SALA DE CULTURA", "localidad": "VICHADERO", "series": ["HFG"], "circuitos": [254], "habilitados": 275, "ranges": [["HFG", 8281, 8577]]}, {"localId": "rivera-L089", "lat": -31.652834, "lon": -54.62225, "nombre": "Escuela N°41", "direccion": "Escuela N°41-Ruta 6 - Joaquín Suarez S/N esq. Calle  A - Complejo Mevir", "nombreNorm": "ESCUELA N°41", "localidad": "PASO HOSPITAL", "series": ["HFH"], "circuitos": [255], "habilitados": 293, "ranges": [["HFH", 1, 823]]}, {"localId": "rivera-L090", "lat": null, "lon": -54.713134, "nombre": "Escuela N° 52", "direccion": "Escuela N° 52-Camino Vecinal  S/N esq. Camino Vecinal", "nombreNorm": "ESCUELA N° 52", "localidad": "CERRILLADA", "series": ["HFI"], "circuitos": [256, 257], "habilitados": 319, "ranges": [["HFI", 1, 333], ["HFI", 334, 552]]}]}