{"dept": "soriano", "locales": [{"localId": "soriano-L001", "lat": -33.2455, "lon": -58.02355556, "nombre": "LICEO \"JOSÉ MARIA CAMPOS\"", "direccion": "LICEO \"JOSÉ MARIA CAMPOS\"-Zapicán  131 esq. Paysandú", "nombreNorm": "LICEO \"JOSE MARIA CAMPOS\"", "localidad": "MERCEDES", "series": ["MAA"], "circuitos": [1, 2, 3, 4], "habilitados": 1611, "ranges": [["MAA", 1, 23949], ["MAA", 23950, 27291], ["MAA", 27292, 30018], ["MAA", 30019, 32008]]}, {"localId": "soriano-L002", "lat": -33.2486338, "lon": -58.0187606999999, "nombre": "LICEO Nº 3 \"GREGORIO CARDOZO\"", "direccion": "LICEO Nº 3 \"GREGORIO CARDOZO\"-Oribe 622", "nombreNorm": "LICEO Nº 3 \"GREGORIO CARDOZO\"", "localidad": "MERCEDES", "series": ["MAA", "MBD"], "circuitos": [70, 71, 72, 73, 87, 88, 96, 97, 103, 104], "habilitados": 3460, "ranges": [["MAA", 82645, 83106], ["MAA", 83107, 83576], ["MAA", 83577, 84065], ["MAA", 84066, 84556], ["MAA", 90442, 90870], ["MAA", 90871, 91291], ["MAA", 94224, 94634], ["MAA", 94635, 94970], ["MBD", 1, 3522], ["MBD", 3523, 3875]]}, {"localId": "soriano-L003", "lat": -33.248924, "lon": -58.031642, "nombre": "UNI 3", "direccion": "UNI 3-De Castro y Careaga 652", "nombreNorm": "UNI 3", "localidad": "MERCEDES", "series": ["MAA"], "circuitos": [5], "habilitados": 405, "ranges": [["MAA", 32009, 34121]]}, {"localId": "soriano-L004", "lat": -33.24788889, "lon": -58.03213889, "nombre": "INTENDENCIA DE SORIANO", "direccion": "INTENDENCIA DE SORIANO-Eusebio Giménez 643", "nombreNorm": "INTENDENCIA DE SORIANO", "localidad": "MERCEDES", "series": ["MAA"], "circuitos": [6], "habilitados": 408, "ranges": [["MAA", 34122, 35522]]}, {"localId": "soriano-L005", "lat": -33.24739, "lon": -58.032, "nombre": "MOVIMIENTO CULTURAL \"JAZZ A LA CALLE\"", "direccion": "MOVIMIENTO CULTURAL \"JAZZ A LA CALLE\"-18 de Julio 168", "nombreNorm": "MOVIMIENTO CULTURAL \"JAZZ A LA CALLE\"", "localidad": "MERCEDES", "series": ["MAA"], "circuitos": [7], "habilitados": 406, "ranges": [["MAA", 35523, 37147]]}, {"localId": "soriano-L006", "lat": -33.24833333, "lon": -58.03383333, "nombre": "BIBLIOTECA \"EUSEBIO GIMÉNEZ\",", "direccion": "BIBLIOTECA \"EUSEBIO GIMÉNEZ\",-Eusebio Giménez S/N esq. 28 de Febrero", "nombreNorm": "BIBLIOTECA \"EUSEBIO GIMENEZ\",", "localidad": "MERCEDES", "series": ["MAA"], "circuitos": [8, 9], "habilitados": 812, "ranges": [["MAA", 37148, 38238], ["MAA", 38239, 39392]]}, {"localId": "soriano-L007", "lat": -33.247, "lon": -58.0315, "nombre": "REGISTRO DE TRASLACIONES", "direccion": "REGISTRO DE TRASLACIONES-Paysandú 681", "nombreNorm": "REGISTRO DE TRASLACIONES", "localidad": "MERCEDES", "series": ["MAA"], "circuitos": [10], "habilitados": 406, "ranges": [["MAA", 39393, 40693]]}, {"localId": "soriano-L008", "lat": -33.24775, "lon": -58.03069444, "nombre": "A.E.B.U.", "direccion": "A.E.B.U.-Eusebio Giménez 715", "nombreNorm": "A.E.B.U.", "localidad": "MERCEDES", "series": ["MAA"], "circuitos": [11], "habilitados": 405, "ranges": [["MAA", 40694, 41872]]}, {"localId": "soriano-L009", "lat": -33.24891667, "lon": -58.03244444, "nombre": "CÍRCULO POLICIAL DE SORIANO", "direccion": "CÍRCULO POLICIAL DE SORIANO-De Castro y Careaga 617", "nombreNorm": "CIRCULO POLICIAL DE SORIANO", "localidad": "MERCEDES", "series": ["MAA"], "circuitos": [12], "habilitados": 405, "ranges": [["MAA", 41873, 43070]]}, {"localId": "soriano-L010", "lat": -33.25079, "lon": -58.03116, "nombre": "INSTITUTO DE FORMACIÓN DOCENTE", "direccion": "INSTITUTO DE FORMACIÓN DOCENTE-18 de Julio 361", "nombreNorm": "INSTITUTO DE FORMACION DOCENTE", "localidad": "MERCEDES", "series": ["MAA"], "circuitos": [13, 14], "habilitados": 812, "ranges": [["MAA", 43071, 44169], ["MAA", 44170, 45227]]}, {"localId": "soriano-L011", "lat": -33.251725, "lon": -58.027869, "nombre": "JU.PA.VI.ME.", "direccion": "JU.PA.VI.ME.-Ituzaingó 436", "nombreNorm": "JU.PA.VI.ME.", "localidad": "MERCEDES", "series": ["MAA"], "circuitos": [15], "habilitados": 406, "ranges": [["MAA", 45228, 46100]]}, {"localId": "soriano-L012", "lat": -33.24685, "lon": -58.0371, "nombre": "OFICINA DE TURISMO", "direccion": "OFICINA DE TURISMO-Detomasi  415 esq. 19 de Abril", "nombreNorm": "OFICINA DE TURISMO", "localidad": "MERCEDES", "series": ["MAA"], "circuitos": [16, 17], "habilitados": 815, "ranges": [["MAA", 46101, 47056], ["MAA", 47057, 48027]]}, {"localId": "soriano-L013", "lat": -33.24666, "lon": -58.037498, "nombre": "CLUB SURUBÍ", "direccion": "CLUB SURUBÍ-19 de Abril 67 esq. Asencio", "nombreNorm": "CLUB SURUBI", "localidad": "MERCEDES", "series": ["MAA"], "circuitos": [18], "habilitados": 408, "ranges": [["MAA", 48028, 49043]]}, {"localId": "soriano-L014", "lat": -33.24522222, "lon": -58.02919444, "nombre": "DEPARTAMENTO DE HIGIENE", "direccion": "DEPARTAMENTO DE HIGIENE-Ituzaingó 71 esq. Asencio", "nombreNorm": "DEPARTAMENTO DE HIGIENE", "localidad": "MERCEDES", "series": ["MAA"], "circuitos": [19], "habilitados": 407, "ranges": [["MAA", 49044, 49949]]}, {"localId": "soriano-L015", "lat": -33.247395, "lon": -58.029764, "nombre": "ESC. TEC. \"WASHINGTON LOCKHART\"", "direccion": "ESC. TEC. \"WASHINGTON LOCKHART\"-Giménez y Artigas s/n", "nombreNorm": "ESC. TEC. \"WASHINGTON LOCKHART\"", "localidad": "MERCEDES", "series": ["MAA"], "circuitos": [20, 21, 22, 23], "habilitados": 1624, "ranges": [["MAA", 49950, 51018], ["MAA", 51019, 51873], ["MAA", 51874, 52747], ["MAA", 52748, 53564]]}, {"localId": "soriano-L016", "lat": -33.24933333, "lon": -58.03461111, "nombre": "BANCO DE PREVISIÓN SOCIAL", "direccion": "BANCO DE PREVISIÓN SOCIAL - MERCEDES-De Castro y Careaga  508", "nombreNorm": "BANCO DE PREVISION SOCIAL", "localidad": "MERCEDES", "series": ["MAA"], "circuitos": [24], "habilitados": 407, "ranges": [["MAA", 53565, 54464]]}, {"localId": "soriano-L017", "lat": -33.24944444, "lon": -58.03475, "nombre": "BANCO DE PREVISIÓN SOCIAL", "direccion": "BANCO DE PREVISIÓN SOCIAL - MERCEDES-Braceras 271", "nombreNorm": "BANCO DE PREVISION SOCIAL", "localidad": "MERCEDES", "series": ["MAA"], "circuitos": [25], "habilitados": 407, "ranges": [["MAA", 54465, 55503]]}, {"localId": "soriano-L018", "lat": -33.25172222, "lon": -58.02991667, "nombre": "ESCUELA DEL HOGAR", "direccion": "ESCUELA DEL HOGAR - MERCEDES-Colón  419", "nombreNorm": "ESCUELA DEL HOGAR", "localidad": "MERCEDES", "series": ["MAA"], "circuitos": [26], "habilitados": 400, "ranges": [["MAA", 55504, 56352]]}, {"localId": "soriano-L019", "lat": -33.25161111, "lon": -58.03016667, "nombre": "ESCUELA Nº 1", "direccion": "ESCUELA Nº 1-Sánchez e/ Colón y 18 de Julio s/n", "nombreNorm": "ESCUELA Nº 1", "localidad": "MERCEDES", "series": ["MAA"], "circuitos": [27], "habilitados": 404, "ranges": [["MAA", 56353, 57100]]}, {"localId": "soriano-L020", "lat": -33.25233333, "lon": -58.02880556, "nombre": "COLEGIO \"SAN MIGUEL\"", "direccion": "COLEGIO \"SAN MIGUEL\"-Artigas 500", "nombreNorm": "COLEGIO \"SAN MIGUEL\"", "localidad": "MERCEDES", "series": ["MAA"], "circuitos": [28, 29, 31, 32, 33], "habilitados": 2007, "ranges": [["MAA", 57101, 57833], ["MAA", 57834, 58539], ["MAA", 59429, 60515], ["MAA", 60516, 61257], ["MAA", 61258, 61953]]}, {"localId": "soriano-L021", "lat": -33.252481, "lon": -58.028733, "nombre": "ANEXO INICIALES COL. SAN MIGUEL", "direccion": "ANEXO INICIALES COL. SAN MIGUEL-Artigas 458", "nombreNorm": "ANEXO INICIALES COL. SAN MIGUEL", "localidad": "MERCEDES", "series": ["MAA"], "circuitos": [30], "habilitados": 398, "ranges": [["MAA", 58540, 59428]]}, {"localId": "soriano-L022", "lat": -33.249964, "lon": -58.045591, "nombre": "COVIANALPA II", "direccion": "COVIANALPA II-Giménez e/ Magnone y 8 de octubre", "nombreNorm": "COVIANALPA II", "localidad": "MERCEDES", "series": ["MAA"], "circuitos": [34], "habilitados": 400, "ranges": [["MAA", 61954, 62761]]}, {"localId": "soriano-L023", "lat": -33.247739, "lon": -58.036278, "nombre": "CLUB EL REMANSO", "direccion": "CLUB EL REMANSO-Cassinoni y Leandro Gómez", "nombreNorm": "CLUB EL REMANSO", "localidad": "MERCEDES", "series": ["MAA"], "circuitos": [35], "habilitados": 408, "ranges": [["MAA", 62762, 63419]]}, {"localId": "soriano-L024", "lat": -33.249805565, "lon": -58.03091667, "nombre": "ÁREAS PEDAGÓGICAS", "direccion": "ÁREAS PEDAGÓGICAS-W. Ferreira Aldunate 678", "nombreNorm": "AREAS PEDAGOGICAS", "localidad": "MERCEDES", "series": ["MAA"], "circuitos": [36], "habilitados": 402, "ranges": [["MAA", 63420, 64035]]}, {"localId": "soriano-L025", "lat": -33.2525, "lon": -58.03097222, "nombre": "ALIANZA FRANCESA", "direccion": "ALIANZA FRANCESA-Ferrería  650", "nombreNorm": "ALIANZA FRANCESA", "localidad": "MERCEDES", "series": ["MAA"], "circuitos": [37], "habilitados": 395, "ranges": [["MAA", 64036, 64687]]}, {"localId": "soriano-L026", "lat": -33.25419444, "lon": -58.03052778, "nombre": "ESCUELA  AMERICANA", "direccion": "ESCUELA  AMERICANA-18 de Julio 538", "nombreNorm": "ESCUELA  AMERICANA", "localidad": "MERCEDES", "series": ["MAA"], "circuitos": [38, 39], "habilitados": 804, "ranges": [["MAA", 64688, 65399], ["MAA", 65400, 66011]]}, {"localId": "soriano-L027", "lat": -33.25597222, "lon": -58.02886111, "nombre": "ASOC. JUBILADOS \"33 ORIENTALES\"", "direccion": "ASOC. JUBILADOS \"33 ORIENTALES\"-Casagrande 705", "nombreNorm": "ASOC. JUBILADOS \"33 ORIENTALES\"", "localidad": "MERCEDES", "series": ["MAA"], "circuitos": [40], "habilitados": 399, "ranges": [["MAA", 66012, 66621]]}, {"localId": "soriano-L028", "lat": -33.25547222, "lon": -58.02738889, "nombre": "ESCUELA Nº 7", "direccion": "ESCUELA Nº 7-Casagrande y Artigas", "nombreNorm": "ESCUELA Nº 7", "localidad": "MERCEDES", "series": ["MAA"], "circuitos": [41, 42], "habilitados": 797, "ranges": [["MAA", 66622, 67228], ["MAA", 67229, 67871]]}, {"localId": "soriano-L029", "lat": -33.25594444, "lon": -58.02908333, "nombre": "CLUB ASENCIO", "direccion": "CLUB ASENCIO-Colón 642", "nombreNorm": "CLUB ASENCIO", "localidad": "MERCEDES", "series": ["MAA"], "circuitos": [43], "habilitados": 401, "ranges": [["MAA", 67872, 68483]]}, {"localId": "soriano-L030", "lat": -33.25933333, "lon": -58.02294444, "nombre": "SALÓN PRIS", "direccion": "SALÓN PRIS-Garibaldi 934", "nombreNorm": "SALON PRIS", "localidad": "MERCEDES", "series": ["MAA"], "circuitos": [44, 45], "habilitados": 806, "ranges": [["MAA", 68484, 69061], ["MAA", 69062, 69677]]}, {"localId": "soriano-L031", "lat": -33.25583333, "lon": -58.02352778, "nombre": "COVIANALPA I", "direccion": "COVIANALPA I-Gomensoro y Don Bosco", "nombreNorm": "COVIANALPA I", "localidad": "MERCEDES", "series": ["MAA"], "circuitos": [46], "habilitados": 404, "ranges": [["MAA", 69678, 70350]]}, {"localId": "soriano-L032", "lat": -33.25386111, "lon": -58.03755556, "nombre": "SEDE FUNC. SALUD PÚBLICA", "direccion": "SEDE FUNC. SALUD PÚBLICA-Rivera 467", "nombreNorm": "SEDE FUNC. SALUD PUBLICA", "localidad": "MERCEDES", "series": ["MAA"], "circuitos": [47], "habilitados": 405, "ranges": [["MAA", 70351, 70944]]}, {"localId": "soriano-L033", "lat": -33.25080556, "lon": 58.02180556, "nombre": "ESCUELA Nº 24", "direccion": "ESCUELA Nº 24-Lavalleja  444", "nombreNorm": "ESCUELA Nº 24", "localidad": "MERCEDES", "series": ["MAA"], "circuitos": [48, 49], "habilitados": 795, "ranges": [["MAA", 70945, 71517], ["MAA", 71518, 72111]]}, {"localId": "soriano-L034", "lat": -33.24608333, "lon": -58.02397222, "nombre": "ESCUELA Nº 11", "direccion": "ESCUELA Nº 11-Paysandú 1048", "nombreNorm": "ESCUELA Nº 11", "localidad": "MERCEDES", "series": ["MAA"], "circuitos": [50, 51, 52], "habilitados": 1208, "ranges": [["MAA", 72112, 72676], ["MAA", 72677, 73229], ["MAA", 73230, 73783]]}, {"localId": "soriano-L035", "lat": -33.248, "lon": -58.02580556, "nombre": "CENTRO PAPELEROS MERCEDES", "direccion": "CENTRO PAPELEROS MERCEDES-De Castro y Careaga  934", "nombreNorm": "CENTRO PAPELEROS MERCEDES", "localidad": "MERCEDES", "series": ["MAA"], "circuitos": [53], "habilitados": 405, "ranges": [["MAA", 73784, 74338]]}, {"localId": "soriano-L036", "lat": -33.24791667, "lon": -58.03413889, "nombre": "HOGAR PARROQUIAL", "direccion": "HOGAR PARROQUIAL-28 de Febrero 176", "nombreNorm": "HOGAR PARROQUIAL", "localidad": "MERCEDES", "series": ["MAA"], "circuitos": [54], "habilitados": 406, "ranges": [["MAA", 74339, 74893]]}, {"localId": "soriano-L037", "lat": -33.24852778, "lon": -58.03172222, "nombre": "ASOCIACIÓN RURAL DE SORIANO", "direccion": "ASOCIACIÓN RURAL DE SORIANO-18 de Julio  231", "nombreNorm": "ASOCIACION RURAL DE SORIANO", "localidad": "MERCEDES", "series": ["MAA"], "circuitos": [55], "habilitados": 403, "ranges": [["MAA", 74894, 75469]]}, {"localId": "soriano-L038", "lat": -33.24765, "lon": -58.031982, "nombre": "DPTO. ACCIÓN SOCIAL Y FAMILIA", "direccion": "DPTO. ACCIÓN SOCIAL Y FAMILIA -18 de Julio y Giménez", "nombreNorm": "DPTO. ACCION SOCIAL Y FAMILIA", "localidad": "MERCEDES", "series": ["MAA"], "circuitos": [56], "habilitados": 395, "ranges": [["MAA", 75470, 76007]]}, {"localId": "soriano-L039", "lat": -33.24947222, "lon": -58.03163889, "nombre": "HOGAR ESTUDIANTIL", "direccion": "HOGAR ESTUDIANTIL-18 de Julio 280", "nombreNorm": "HOGAR ESTUDIANTIL", "localidad": "MERCEDES", "series": ["MAA"], "circuitos": [57], "habilitados": 404, "ranges": [["MAA", 76008, 76544]]}, {"localId": "soriano-L040", "lat": -33.24831, "lon": -58.027885, "nombre": "CENTRO ATENCIÓN ADOLESCENTES", "direccion": "CENTRO ATENCIÓN ADOLESCENTES-De Castro y Careaga 836", "nombreNorm": "CENTRO ATENCION ADOLESCENTES", "localidad": "MERCEDES", "series": ["MAA"], "circuitos": [58], "habilitados": 404, "ranges": [["MAA", 76545, 77078]]}, {"localId": "soriano-L041", "lat": -33.25469444, "lon": -58.03716667, "nombre": "ESCUELA Nº 46", "direccion": "ESCUELA Nº 46-Rivas  366", "nombreNorm": "ESCUELA Nº 46", "localidad": "MERCEDES", "series": ["MAA"], "circuitos": [59, 60], "habilitados": 803, "ranges": [["MAA", 77079, 77615], ["MAA", 77616, 78110]]}, {"localId": "soriano-L042", "lat": -33.25697222, "lon": -58.04438889, "nombre": "ESCUELA Nº 65", "direccion": "ESCUELA Nº 65-Aparicio Saravia y Magnone", "nombreNorm": "ESCUELA Nº 65", "localidad": "MERCEDES", "series": ["MAA"], "circuitos": [61, 62], "habilitados": 806, "ranges": [["MAA", 78111, 78618], ["MAA", 78619, 79122]]}, {"localId": "soriano-L043", "lat": -33.25147222, "lon": -58.04463889, "nombre": "ESCUELA Nº 95", "direccion": "ESCUELA Nº 95-8 de Octubre 285", "nombreNorm": "ESCUELA Nº 95", "localidad": "MERCEDES", "series": ["MAA"], "circuitos": [63, 64], "habilitados": 807, "ranges": [["MAA", 79123, 79617], ["MAA", 79618, 80165]]}, {"localId": "soriano-L044", "lat": -33.2490429, "lon": -58.0336479, "nombre": "CENTRO URUGUAYO", "direccion": "CENTRO URUGUAYO-De Castro y Careaga 557", "nombreNorm": "CENTRO URUGUAYO", "localidad": "MERCEDES", "series": ["MAA"], "circuitos": [65, 66], "habilitados": 799, "ranges": [["MAA", 80166, 80703], ["MAA", 80704, 81185]]}, {"localId": "soriano-L045", "lat": -33.2472821, "lon": -58.0288388, "nombre": "ESCUELA Nº 104", "direccion": "ESCUELA Nº 104-E. Giménez 797", "nombreNorm": "ESCUELA Nº 104", "localidad": "MERCEDES", "series": ["MAA"], "circuitos": [67, 68], "habilitados": 807, "ranges": [["MAA", 81186, 81691], ["MAA", 81692, 82164]]}, {"localId": "soriano-L046", "lat": -33.2525742, "lon": -58.0401823, "nombre": "ASOCIACIÓN RETIRADOS POLICIALES", "direccion": "ASOCIACIÓN RETIRADOS POLICIALES-Pozzolo  368", "nombreNorm": "ASOCIACION RETIRADOS POLICIALES", "localidad": "MERCEDES", "series": ["MAA"], "circuitos": [69], "habilitados": 406, "ranges": [["MAA", 82165, 82644]]}, {"localId": "soriano-L047", "lat": -33.2501477, "lon": -58.0326374, "nombre": "HOGAR ESPAÑOL", "direccion": "HOGAR ESPAÑOL-Haedo e/W.Ferreira y J.E. Rodó", "nombreNorm": "HOGAR ESPANOL", "localidad": "MERCEDES", "series": ["MAA"], "circuitos": [74], "habilitados": 405, "ranges": [["MAA", 84557, 85050]]}, {"localId": "soriano-L048", "lat": -33.2492543, "lon": -58.0281923, "nombre": "CASA DE LA CULTURA", "direccion": "CASA DE LA CULTURA - MERCEDES-W. Ferreira Aldunate e Ituzaingó", "nombreNorm": "CASA DE LA CULTURA", "localidad": "MERCEDES", "series": ["MAA"], "circuitos": [75], "habilitados": 402, "ranges": [["MAA", 85051, 85529]]}, {"localId": "soriano-L049", "lat": -33.2498545, "lon": -58.0320804, "nombre": "ESCUELA Nº 4", "direccion": "ESCUELA Nº 4-W. Ferreira Aldunate 621", "nombreNorm": "ESCUELA Nº 4", "localidad": "MERCEDES", "series": ["MAA"], "circuitos": [76, 77, 78, 79], "habilitados": 1619, "ranges": [["MAA", 85530, 86007], ["MAA", 86008, 86459], ["MAA", 86460, 86915], ["MAA", 86916, 87356]]}, {"localId": "soriano-L050", "lat": -33.2500029, "lon": -58.0318597, "nombre": "LICEO Nº2 \"LUIS A. ZANZI\"", "direccion": "LICEO Nº2 \"LUIS A. ZANZI\"-W. Ferreira Aldunate 632", "nombreNorm": "LICEO Nº2 \"LUIS A. ZANZI\"", "localidad": "MERCEDES", "series": ["MAA"], "circuitos": [80, 81, 82], "habilitados": 1212, "ranges": [["MAA", 87357, 87798], ["MAA", 87799, 88244], ["MAA", 88245, 88685]]}, {"localId": "soriano-L051", "lat": -33.252914, "lon": -58.0320401, "nombre": "ESCUELA TÉCNICA \"PEDRO BLANES VIALE\"", "direccion": "ESCUELA TÉCNICA \"PEDRO BLANES VIALE\"-Eduardo V. Haedo 458 esq. Dr. Ferrería", "nombreNorm": "ESCUELA TECNICA \"PEDRO BLANES VIALE\"", "localidad": "MERCEDES", "series": ["MAA"], "circuitos": [83, 84], "habilitados": 809, "ranges": [["MAA", 88686, 89125], ["MAA", 89126, 89551]]}, {"localId": "soriano-L052", "lat": -33.2511196, "lon": -58.0302048999999, "nombre": "SOCIEDAD ITALIANA", "direccion": "SOCIEDAD ITALIANA-Colón 382", "nombreNorm": "SOCIEDAD ITALIANA", "localidad": "MERCEDES", "series": ["MAA"], "circuitos": [85, 86], "habilitados": 806, "ranges": [["MAA", 89552, 89997], ["MAA", 89998, 90441]]}, {"localId": "soriano-L053", "lat": -33.2502117, "lon": -58.0344665999999, "nombre": "O.S.E.", "direccion": "O.S.E.-W. Ferreira Aldunate 507", "nombreNorm": "O.S.E.", "localidad": "MERCEDES", "series": ["MAA"], "circuitos": [89, 90], "habilitados": 813, "ranges": [["MAA", 91292, 91713], ["MAA", 91714, 92135]]}, {"localId": "soriano-L054", "lat": -33.2575734, "lon": -58.0199596999999, "nombre": "ESCUELA Nº 41", "direccion": "ESCUELA Nº 41-Pedro Hors y Lavalleja", "nombreNorm": "ESCUELA Nº 41", "localidad": "MERCEDES", "series": ["MAA"], "circuitos": [91], "habilitados": 403, "ranges": [["MAA", 92136, 92555]]}, {"localId": "soriano-L055", "lat": -33.2632255, "lon": -58.0305125999999, "nombre": "LICEO Nº 4", "direccion": "LICEO Nº 4-Constituyente y Haedo", "nombreNorm": "LICEO Nº 4", "localidad": "MERCEDES", "series": ["MAA"], "circuitos": [92, 93, 94, 95], "habilitados": 1587, "ranges": [["MAA", 92556, 92975], ["MAA", 92976, 93395], ["MAA", 93396, 93811], ["MAA", 93812, 94223]]}, {"localId": "soriano-L056", "lat": -33.3946162, "lon": -58.3197657, "nombre": "Escuela Nº 6, Villa Soriano", "direccion": "Escuela Nº 6, Villa Soriano-VILLA SORIANO", "nombreNorm": "ESCUELA Nº 6, VILLA SORIANO", "localidad": "VILLA SORIANO", "series": ["MBA"], "circuitos": [98, 99], "habilitados": 615, "ranges": [["MBA", 1, 2756], ["MBA", 2757, 3290]]}, {"localId": "soriano-L057", "lat": -33.3941384, "lon": -58.3204463999999, "nombre": "JUNTA LOCAL", "direccion": "JUNTA LOCAL - VILLA SORIANO-Villa Soriano", "nombreNorm": "JUNTA LOCAL", "localidad": "VILLA SORIANO", "series": ["MBA"], "circuitos": [100], "habilitados": 310, "ranges": [["MBA", 3291, 3678]]}, {"localId": "soriano-L058", "lat": -33.3987412, "lon": -58.3205929, "nombre": "AULA POLIVALENTE", "direccion": "AULA POLIVALENTE-", "nombreNorm": "AULA POLIVALENTE", "localidad": "VILLA SORIANO", "series": ["MBA"], "circuitos": [101], "habilitados": 305, "ranges": [["MBA", 3679, 4010]]}, {"localId": "soriano-L059", "lat": -33.5102792, "lon": -57.7498103, "nombre": "ESCUELA Nº 83", "direccion": "ESCUELA Nº 83-Bizcocho", "nombreNorm": "ESCUELA Nº 83", "localidad": "BIZCOCHO", "series": ["MBB", "MBC", "MBE", "MDF", "MEA", "MFE", "MGA", "MGI"], "circuitos": [102, 106, 158, 160, 196, 197, 205], "habilitados": 635, "ranges": [["MBB", 1, 340], ["MBC", 1, 425], ["MBE", 1, 926], ["MDF", 1, 272], ["MEA", 1, 313], ["MFE", 1, 2054], ["MGA", 1, 533], ["MGI", 1, 407]]}, {"localId": "soriano-L060", "lat": -33.2594291, "lon": -58.0081492999999, "nombre": "ESCUELA Nº 25", "direccion": "ESCUELA Nº 25-Camino Pense", "nombreNorm": "ESCUELA Nº 25", "localidad": "EJIDO DE MERCEDES", "series": ["MBD"], "circuitos": [105], "habilitados": 222, "ranges": [["MBD", 3876, 4129]]}, {"localId": "soriano-L061", "lat": -33.5331503, "lon": -58.2156029, "nombre": "ESCUELA Nº 102", "direccion": "ESCUELA Nº 102-Barrenechea 1925", "nombreNorm": "ESCUELA Nº 102", "localidad": "DOLORES", "series": ["MCA"], "circuitos": [107, 108, 114, 116, 117, 122, 123, 124, 125, 126, 129, 130, 131, 132, 133, 134, 135, 141, 142, 144, 145, 147, 148], "habilitados": 9237, "ranges": [["MCA", 1, 13074], ["MCA", 13075, 15310], ["MCA", 21213, 22147], ["MCA", 23054, 23875], ["MCA", 23876, 24729], ["MCA", 27306, 27872], ["MCA", 27873, 28458], ["MCA", 28459, 29021], ["MCA", 29022, 29620], ["MCA", 29621, 30182], ["MCA", 31238, 31744], ["MCA", 31745, 32271], ["MCA", 32272, 32754], ["MCA", 32755, 33246], ["MCA", 33247, 33712], ["MCA", 33713, 34202], ["MCA", 34203, 34735], ["MCA", 37033, 37476], ["MCA", 37477, 37910], ["MCA", 38334, 38765], ["MCA", 38766, 39195], ["MCA", 39612, 40021], ["MCA", 40022, 40431]]}, {"localId": "soriano-L062", "lat": -33.5272682, "lon": -58.2190352, "nombre": "AJUPENDOL", "direccion": "AJUPENDOL-Gomensoro  1140", "nombreNorm": "AJUPENDOL", "localidad": "DOLORES", "series": ["MCA"], "circuitos": [109, 110], "habilitados": 805, "ranges": [["MCA", 15311, 16835], ["MCA", 16836, 18010]]}, {"localId": "soriano-L063", "lat": -33.5258347, "lon": -58.2208388, "nombre": "FRONTÓN PROGRESO", "direccion": "FRONTÓN PROGRESO-Asencio y E. Barros", "nombreNorm": "FRONTON PROGRESO", "localidad": "DOLORES", "series": ["MCA"], "circuitos": [111], "habilitados": 404, "ranges": [["MCA", 18011, 19165]]}, {"localId": "soriano-L064", "lat": -33.5358177, "lon": -58.2122849, "nombre": "CECAP", "direccion": "CECAP-Tomas Gómez y 18 de Julio", "nombreNorm": "CECAP", "localidad": "DOLORES", "series": ["MCA"], "circuitos": [112, 113], "habilitados": 806, "ranges": [["MCA", 19166, 20239], ["MCA", 20240, 21212]]}, {"localId": "soriano-L065", "lat": -33.5356948, "lon": -58.2120455, "nombre": "CAIF \"ESTRELLITAS DE COLORES\"", "direccion": "CAIF \"ESTRELLITAS DE COLORES\"-Tomás Gómez  1196", "nombreNorm": "CAIF \"ESTRELLITAS DE COLORES\"", "localidad": "DOLORES", "series": ["MCA"], "circuitos": [115], "habilitados": 404, "ranges": [["MCA", 22148, 23053]]}, {"localId": "soriano-L066", "lat": -33.521286, "lon": -58.215413, "nombre": "ESCUELA Nº 97", "direccion": "ESCUELA Nº 97-Rivera y Río Negro", "nombreNorm": "ESCUELA Nº 97", "localidad": "DOLORES", "series": ["MCA"], "circuitos": [118, 119], "habilitados": 804, "ranges": [["MCA", 24730, 25358], ["MCA", 25359, 26051]]}, {"localId": "soriano-L067", "lat": -33.5336194, "lon": -58.2165095999999, "nombre": "ESCUELA Nº 58", "direccion": "ESCUELA Nº 58-Treinta y Tres Orientales 1302", "nombreNorm": "ESCUELA Nº 58", "localidad": "DOLORES", "series": ["MCA"], "circuitos": [120], "habilitados": 404, "ranges": [["MCA", 26052, 26706]]}, {"localId": "soriano-L068", "lat": -33.528283, "lon": -58.2140184, "nombre": "CLUB DEL NIÑO \"GURISITOS\"", "direccion": "CLUB DEL NIÑO \"GURISITOS\"-Gadea  1610", "nombreNorm": "CLUB DEL NINO \"GURISITOS\"", "localidad": "DOLORES", "series": ["MCA"], "circuitos": [121], "habilitados": 403, "ranges": [["MCA", 26707, 27305]]}, {"localId": "soriano-L069", "lat": -33.5306817, "lon": -58.2167308999999, "nombre": "LICEO Nº 1 \"ROBERTO TARUSELLI\"", "direccion": "LICEO Nº 1 \"ROBERTO TARUSELLI\"-Artigas  1227", "nombreNorm": "LICEO Nº 1 \"ROBERTO TARUSELLI\"", "localidad": "DOLORES", "series": ["MCA"], "circuitos": [127, 128], "habilitados": 804, "ranges": [["MCA", 30183, 30722], ["MCA", 30723, 31237]]}, {"localId": "soriano-L070", "lat": -33.5347018, "lon": -58.2138707, "nombre": "UTU", "direccion": "UTU - DOLORES-Cheveste 1207", "nombreNorm": "UTU", "localidad": "DOLORES", "series": ["MCA"], "circuitos": [136, 137, 138], "habilitados": 1209, "ranges": [["MCA", 34736, 35192], ["MCA", 35193, 35649], ["MCA", 35650, 36104]]}, {"localId": "soriano-L071", "lat": -33.5326462, "lon": -58.2145779, "nombre": "ESCUELA Nº 40", "direccion": "ESCUELA Nº 40-Asencio y Agraciada", "nombreNorm": "ESCUELA Nº 40", "localidad": "DOLORES", "series": ["MCA"], "circuitos": [139, 140], "habilitados": 803, "ranges": [["MCA", 36105, 36573], ["MCA", 36574, 37032]]}, {"localId": "soriano-L072", "lat": -33.5299936, "lon": -58.2155114, "nombre": "MUNICIPIO DE DOLORES", "direccion": "MUNICIPIO DE DOLORES-Artigas 1157", "nombreNorm": "MUNICIPIO DE DOLORES", "localidad": "DOLORES", "series": ["MCA"], "circuitos": [143], "habilitados": 403, "ranges": [["MCA", 37911, 38333]]}, {"localId": "soriano-L073", "lat": -33.5287677, "lon": -58.226382, "nombre": "ESCUELA Nº 76", "direccion": "ESCUELA Nº 76-Elena Barros y Comunidad Valdense", "nombreNorm": "ESCUELA Nº 76", "localidad": "DOLORES", "series": ["MCA"], "circuitos": [146], "habilitados": 402, "ranges": [["MCA", 39196, 39611]]}, {"localId": "soriano-L074", "lat": -33.545821, "lon": -58.2062832, "nombre": "CENTRO JUVENIL MUNAY  (ex Hogar Infantil)", "direccion": "CENTRO JUVENIL MUNAY  (ex Hogar Infantil)-Ruta 96", "nombreNorm": "CENTRO JUVENIL MUNAY  (EX HOGAR INFANTIL)", "localidad": "DOLORES", "series": ["MCA"], "circuitos": [149], "habilitados": 340, "ranges": [["MCA", 40432, 40819]]}, {"localId": "soriano-L075", "lat": -33.5651194, "lon": -58.4264263, "nombre": "ESCUELA  AGRARIA", "direccion": "ESCUELA  AGRARIA-La Concordia", "nombreNorm": "ESCUELA  AGRARIA", "localidad": "LA CONCORDIA", "series": ["MCB"], "circuitos": [150], "habilitados": 288, "ranges": [["MCB", 1, 1221]]}, {"localId": "soriano-L076", "lat": -33.8099346, "lon": -58.2680948, "nombre": "UTU", "direccion": "UTU - AGRACIADA-33 Orientales s/n", "nombreNorm": "UTU", "localidad": "AGRACIADA", "series": ["MDA"], "circuitos": [151, 152], "habilitados": 567, "ranges": [["MDA", 1, 3478], ["MDA", 3479, 3996]]}, {"localId": "soriano-L077", "lat": -33.4035203, "lon": -58.3183795, "nombre": "ESCUELA Nº 3", "direccion": "ESCUELA Nº 3-Agraciada", "nombreNorm": "ESCUELA Nº 3", "localidad": "AGRACIADA", "series": ["MDA", "MDB"], "circuitos": [153], "habilitados": 622, "ranges": [["MDA", 3997, 4317], ["MDB", 1, 587]]}, {"localId": "soriano-L078", "lat": -33.7012806, "lon": -58.1009063, "nombre": "ESCUELA Nº 23", "direccion": "ESCUELA Nº 23-Ruta 96 km 44", "nombreNorm": "ESCUELA Nº 23", "localidad": "CAÑADA NIETO", "series": ["MDC"], "circuitos": [154, 155], "habilitados": 505, "ranges": [["MDC", 1, 1452], ["MDC", 1453, 1767]]}, {"localId": "soriano-L079", "lat": -33.8275144, "lon": -58.0225419999999, "nombre": "ESCUELA Nº 13", "direccion": "ESCUELA Nº 13-Ruta 96 km 63", "nombreNorm": "ESCUELA Nº 13", "localidad": "PALO SOLO", "series": ["MDD"], "circuitos": [156], "habilitados": 199, "ranges": [["MDD", 1, 605]]}, {"localId": "soriano-L080", "lat": -33.583333, "lon": -58.083333, "nombre": "ESCUELA Nº 20", "direccion": "ESCUELA Nº 20-Cañada Paraguaya", "nombreNorm": "ESCUELA Nº 20", "localidad": "CDA PARAGUAYA", "series": ["MDE"], "circuitos": [157], "habilitados": 67, "ranges": [["MDE", 1, 923]]}, {"localId": "soriano-L081", "lat": -33.5097273, "lon": -57.8041925, "nombre": "CASA DE LA CULTURA", "direccion": "CASA DE LA CULTURA - PALMITAS-V. Orcoyen y Reiles", "nombreNorm": "CASA DE LA CULTURA", "localidad": "PALMITAS", "series": ["MDG"], "circuitos": [159], "habilitados": 19, "ranges": [["MDG", 1, 575]]}, {"localId": "soriano-L082", "lat": -33.830433511622914, "lon": -57.78582686199796, "nombre": "Escuela Nº 16, Perseverano", "direccion": "Escuela Nº 16, Perseverano-Camino Vecinal s/n", "nombreNorm": "ESCUELA Nº 16, PERSEVERANO", "localidad": "PERSEVERANO-CASTILLO", "series": ["MEB"], "circuitos": [161], "habilitados": 188, "ranges": [["MEB", 1, 1304]]}, {"localId": "soriano-L083", "lat": -33.8304197, "lon": -57.7906473, "nombre": "ESCUELA Nº 63", "direccion": "ESCUELA Nº 63-Pueblo Castillo", "nombreNorm": "ESCUELA Nº 63", "localidad": "PERSEVERANO-CASTILLO", "series": ["MEB"], "circuitos": [162], "habilitados": 188, "ranges": [["MEB", 1305, 1509]]}, {"localId": "soriano-L084", "lat": -33.5442593, "lon": -58.209717, "nombre": "ESCUELA Nº 12", "direccion": "ESCUELA Nº 12-Corralito", "nombreNorm": "ESCUELA Nº 12", "localidad": "CORRALITO", "series": ["MEC"], "circuitos": [163], "habilitados": 34, "ranges": [["MEC", 1, 622]]}, {"localId": "soriano-L085", "lat": -33.75, "lon": -57.616667, "nombre": "ESCUELA Nº 34", "direccion": "ESCUELA Nº 34-San Martín", "nombreNorm": "ESCUELA Nº 34", "localidad": "SAN MARTÍN", "series": ["MED"], "circuitos": [164], "habilitados": 61, "ranges": [["MED", 1, 925]]}, {"localId": "soriano-L086", "lat": -33.692268, "lon": -57.5381387, "nombre": "LICEO", "direccion": "LICEO - JOSÉ E. RODÓ-José E. Rodó", "nombreNorm": "LICEO", "localidad": "JOSE ENRIQUE RODÓ", "series": ["MEE", "MFC"], "circuitos": [165, 166, 169, 191, 192], "habilitados": 1234, "ranges": [["MEE", 1, 2159], ["MEE", 2160, 2671], ["MEE", 3332, 3604], ["MFC", 1, 2170], ["MFC", 2171, 2636]]}, {"localId": "soriano-L087", "lat": -33.6982436, "lon": -57.532487, "nombre": "ESCUELA Nº 45", "direccion": "ESCUELA Nº 45-José E. Rodó", "nombreNorm": "ESCUELA Nº 45", "localidad": "JOSE ENRIQUE RODÓ", "series": ["MEE", "MFC", "MFD"], "circuitos": [167, 168, 193, 194, 195], "habilitados": 1053, "ranges": [["MEE", 2672, 3030], ["MEE", 3031, 3331], ["MFC", 2637, 2939], ["MFC", 2940, 3193], ["MFD", 1, 604]]}, {"localId": "soriano-L088", "lat": -33.9028949, "lon": -57.4745096, "nombre": "ESCUELA Nº 52", "direccion": "ESCUELA Nº 52-Colonia Larrañaga", "nombreNorm": "ESCUELA Nº 52", "localidad": "COLONIA LARRAÑAGA", "series": ["MEF"], "circuitos": [170], "habilitados": 134, "ranges": [["MEF", 1, 2058]]}, {"localId": "soriano-L089", "lat": -33.870917, "lon": -57.3777062, "nombre": "ESCUELA Nº 115", "direccion": "ESCUELA Nº 115-Regules y Lavalleja", "nombreNorm": "ESCUELA Nº 115", "localidad": "CARDONA", "series": ["MFA"], "circuitos": [171], "habilitados": 396, "ranges": [["MFA", 1, 7557]]}, {"localId": "soriano-L090", "lat": -33.8711386, "lon": -57.3732455, "nombre": "LICEO DE CARDONA", "direccion": "LICEO DE CARDONA-Lavalleja y Gallinal", "nombreNorm": "LICEO DE CARDONA", "localidad": "CARDONA", "series": ["MFA"], "circuitos": [172, 173, 174, 175], "habilitados": 1590, "ranges": [["MFA", 7558, 9301], ["MFA", 9302, 10416], ["MFA", 10417, 11468], ["MFA", 11469, 12323]]}, {"localId": "soriano-L091", "lat": -33.8714707, "lon": -57.3711815, "nombre": "MUNICIPIO DE CARDONA", "direccion": "MUNICIPIO DE CARDONA-Lavalleja 1308", "nombreNorm": "MUNICIPIO DE CARDONA", "localidad": "CARDONA", "series": ["MFA"], "circuitos": [176], "habilitados": 398, "ranges": [["MFA", 12324, 13045]]}, {"localId": "soriano-L092", "lat": -33.8670218, "lon": -57.3717021999999, "nombre": "CASA DE LA CULTURA", "direccion": "CASA DE LA CULTURA - CARDONA-Pacheco y Libertad", "nombreNorm": "CASA DE LA CULTURA", "localidad": "CARDONA", "series": ["MFA"], "circuitos": [177], "habilitados": 397, "ranges": [["MFA", 13046, 13708]]}, {"localId": "soriano-L093", "lat": -33.8686587, "lon": -57.3727856, "nombre": "CLUB UNIÓN", "direccion": "CLUB UNIÓN-Joaquín Suarez y Mendiondo", "nombreNorm": "CLUB UNION", "localidad": "CARDONA", "series": ["MFA"], "circuitos": [178], "habilitados": 400, "ranges": [["MFA", 13709, 14332]]}, {"localId": "soriano-L094", "lat": -33.8713239, "lon": -57.3756903, "nombre": "UTU", "direccion": "UTU - CARDONA-Lavalleja y Mistral", "nombreNorm": "UTU", "localidad": "CARDONA", "series": ["MFA"], "circuitos": [179, 180], "habilitados": 797, "ranges": [["MFA", 14333, 14899], ["MFA", 14900, 15410]]}, {"localId": "soriano-L095", "lat": -33.8701227, "lon": -57.3700536, "nombre": "CASA FÉRTIL", "direccion": "CASA FÉRTIL-Rivra y J. Suárez", "nombreNorm": "CASA FERTIL", "localidad": "CARDONA", "series": ["MFA"], "circuitos": [181], "habilitados": 397, "ranges": [["MFA", 15411, 15912]]}, {"localId": "soriano-L096", "lat": -33.8734024, "lon": -57.3666243999999, "nombre": "ESCUELA Nº 9", "direccion": "ESCUELA Nº 9-Bvar. Cardona y R. Sosa", "nombreNorm": "ESCUELA Nº 9", "localidad": "CARDONA", "series": ["MFA"], "circuitos": [182, 183], "habilitados": 796, "ranges": [["MFA", 15913, 16395], ["MFA", 16396, 16853]]}, {"localId": "soriano-L097", "lat": -33.8687833, "lon": -57.3600613, "nombre": "ESCUELA Nº 54", "direccion": "ESCUELA Nº 54-Pacheco y J. De Ibarbourou", "nombreNorm": "ESCUELA Nº 54", "localidad": "CARDONA", "series": ["MFA"], "circuitos": [184, 185, 186], "habilitados": 1158, "ranges": [["MFA", 16854, 17300], ["MFA", 17301, 17714], ["MFA", 17715, 18104]]}, {"localId": "soriano-L098", "lat": -33.7917326, "lon": -57.4851858, "nombre": "ESCUELA Nº 37", "direccion": "ESCUELA Nº 37-Ruta 2 km 197", "nombreNorm": "ESCUELA Nº 37", "localidad": "SANTA CATALINA", "series": ["MFB"], "circuitos": [187, 188], "habilitados": 536, "ranges": [["MFB", 1, 2194], ["MFB", 2195, 2705]]}, {"localId": "soriano-L099", "lat": -33.7892193, "lon": -57.4928440999999, "nombre": "SALÓN MPAL. URUGUAY", "direccion": "SALÓN MPAL. URUGUAY-Santa Catalina", "nombreNorm": "SALON MPAL. URUGUAY", "localidad": "SANTA CATALINA", "series": ["MFB"], "circuitos": [189], "habilitados": 273, "ranges": [["MFB", 2706, 3049]]}, {"localId": "soriano-L100", "lat": -33.78915, "lon": -57.4897926, "nombre": "JUNTA LOCAL", "direccion": "JUNTA LOCAL - SANTA CATALINA-Ángel Ceriani  s/n", "nombreNorm": "JUNTA LOCAL", "localidad": "SANTA CATALINA", "series": ["MFB"], "circuitos": [190], "habilitados": 268, "ranges": [["MFB", 3050, 3341]]}, {"localId": "soriano-L101", "lat": -33.053829, "lon": -57.856595, "nombre": "ESCUELA Nº 38", "direccion": "ESCUELA Nº 38-Rincón de Cololó", "nombreNorm": "ESCUELA Nº 38", "localidad": "RINCÓN DE COLOLÓ", "series": ["MGB"], "circuitos": [198], "habilitados": 32, "ranges": [["MGB", 1, 431]]}, {"localId": "soriano-L102", "lat": -33.09021, "lon": -57.76458, "nombre": "ESCUELA Nº 19", "direccion": "ESCUELA Nº 19-San Dios", "nombreNorm": "ESCUELA Nº 19", "localidad": "SAN DIOS", "series": ["MGC"], "circuitos": [199], "habilitados": 28, "ranges": [["MGC", 1, 356]]}, {"localId": "soriano-L103", "lat": -33.1172285, "lon": -57.6325996, "nombre": "ESCUELA Nº 18", "direccion": "ESCUELA Nº 18-Sacachispas", "nombreNorm": "ESCUELA Nº 18", "localidad": "SACACHISPAS", "series": ["MGD", "MGE"], "circuitos": [200, 201], "habilitados": 808, "ranges": [["MGD", 1, 1433], ["MGD", 1434, 1736], ["MGE", 1, 155]]}, {"localId": "soriano-L104", "lat": -33.0640027, "lon": -57.4603329999999, "nombre": "JUNTA LOCAL PALMAR", "direccion": "JUNTA LOCAL PALMAR-Palmar", "nombreNorm": "JUNTA LOCAL PALMAR", "localidad": "PALMAR", "series": ["MGF"], "circuitos": [202], "habilitados": 219, "ranges": [["MGF", 1, 1386]]}, {"localId": "soriano-L105", "lat": -33.203524, "lon": -57.4125489, "nombre": "SALÓN MEVIR", "direccion": "SALÓN MEVIR - EL TALA-El Tala", "nombreNorm": "SALON MEVIR", "localidad": "PALMAR", "series": ["MGF"], "circuitos": [203], "habilitados": 215, "ranges": [["MGF", 1387, 1647]]}, {"localId": "soriano-L106", "lat": -33.383333, "lon": -57.55, "nombre": "ESCUELA Nº 80", "direccion": "ESCUELA Nº 80-Puntas del Tala", "nombreNorm": "ESCUELA Nº 80", "localidad": "LA LAGUNA", "series": ["MGG", "MGH"], "circuitos": [204], "habilitados": 24, "ranges": [["MGG", 1, 371], ["MGH", 1, 315]]}, {"localId": "soriano-L107", "lat": -33.5108945, "lon": -57.8004119999999, "nombre": "MUNICIPIO DE PALMITAS", "direccion": "MUNICIPIO DE PALMITAS-V. Orcoyen y 18 de Julio", "nombreNorm": "MUNICIPIO DE PALMITAS", "localidad": "PALMITAS", "series": ["MGJ"], "circuitos": [206, 207], "habilitados": 556, "ranges": [["MGJ", 1, 2630], ["MGJ", 2631, 3218]]}, {"localId": "soriano-L108", "lat": -33.5108609, "lon": -57.8021904, "nombre": "LICEO DE PALMITAS", "direccion": "LICEO DE PALMITAS-18 de Julio s/n", "nombreNorm": "LICEO DE PALMITAS", "localidad": "PALMITAS", "series": ["MGJ"], "circuitos": [208, 209], "habilitados": 562, "ranges": [["MGJ", 3219, 3731], ["MGJ", 3732, 4122]]}, {"localId": "soriano-L109", "lat": -33.5094779, "lon": -57.8071056999999, "nombre": "ESCUELA Nº 47", "direccion": "ESCUELA Nº 47-Juan Rodriguez Serrano s/n", "nombreNorm": "ESCUELA Nº 47", "localidad": "PALMITAS", "series": ["MGJ"], "circuitos": [210], "habilitados": 281, "ranges": [["MGJ", 4123, 4477]]}, {"localId": "soriano-L110", "lat": -33.5096578, "lon": -57.8081274, "nombre": "JARDÍN Nº 121", "direccion": "JARDÍN Nº 121-V. Orcoyen  s/n", "nombreNorm": "JARDIN Nº 121", "localidad": "PALMITAS", "series": ["MGJ"], "circuitos": [211], "habilitados": 281, "ranges": [["MGJ", 4478, 4823]]}, {"localId": "soriano-L111", "lat": -33.5061006, "lon": -57.7982142, "nombre": "ESPACIO CULTURAL PALMITAS (ex Casa Policial)", "direccion": "ESPACIO CULTURAL PALMITAS (ex Casa Policial)-Bvar. Rodó s/n", "nombreNorm": "ESPACIO CULTURAL PALMITAS (EX CASA POLICIAL)", "localidad": "PALMITAS", "series": ["MGJ"], "circuitos": [212, 213], "habilitados": 552, "ranges": [["MGJ", 4824, 5140], ["MGJ", 5141, 5423]]}, {"localId": "soriano-L112", "lat": -33.6001779, "lon": -57.6292459, "nombre": "ESCUELA Nº 44", "direccion": "ESCUELA Nº 44-Tabaré  s/n", "nombreNorm": "ESCUELA Nº 44", "localidad": "EGAÑA", "series": ["MGK"], "circuitos": [214, 215], "habilitados": 581, "ranges": [["MGK", 1, 2764], ["MGK", 2765, 3244]]}, {"localId": "soriano-L113", "lat": -33.6032041, "lon": -57.6292519, "nombre": "CENTRO DE INCLUSIÓN DIGITAL", "direccion": "CENTRO DE INCLUSIÓN DIGITAL-Bvar. Artigas s/n esq. De la Estación", "nombreNorm": "CENTRO DE INCLUSION DIGITAL", "localidad": "EGAÑA", "series": ["MGK"], "circuitos": [216], "habilitados": 289, "ranges": [["MGK", 3245, 3557]]}, {"localId": "soriano-L114", "lat": -33.6232867, "lon": -57.5713349999999, "nombre": "ESCUELA Nº 48", "direccion": "ESCUELA Nº 48-Calle 7 s/n", "nombreNorm": "ESCUELA Nº 48", "localidad": "RISSO", "series": ["MGL"], "circuitos": [217, 218], "habilitados": 605, "ranges": [["MGL", 1, 503], ["MGL", 504, 851]]}]}