{"dept": "tacuarembo", "locales": [{"localId": "tacuarembo-L001", "lat": -31.7169376, "lon": -55.975385, "nombre": "ASOCIACIÓN DE JUBILADOS", "direccion": "ASOCIACIÓN DE JUBILADOS -ITUZAINGÓ  388 esq. Baltazar Brum", "nombreNorm": "ASOCIACION DE JUBILADOS", "localidad": "TACUAREMBÓ", "series": ["TAA"], "circuitos": [1, 2, 5], "habilitados": 1210, "ranges": [["TAA", 1, 23659], ["TAA", 23660, 27427], ["TAA", 31768, 33626]]}, {"localId": "tacuarembo-L002", "lat": -31.716519, "lon": -55.9757972, "nombre": "CENTRO CULTURAL NACIONAL TACUAREMBÓ", "direccion": "CENTRO CULTURAL NACIONAL TACUAREMBÓ-TACUAREMBÓ 364 esq. Baltazar Brum", "nombreNorm": "CENTRO CULTURAL NACIONAL TACUAREMBO", "localidad": "TACUAREMBÓ", "series": ["TAA"], "circuitos": [3, 4], "habilitados": 813, "ranges": [["TAA", 27428, 29644], ["TAA", 29645, 31767]]}, {"localId": "tacuarembo-L003", "lat": -31.7164779, "lon": -55.9759523, "nombre": "HOGAR ESTUDIANTIL (SALA DE ESTUDIO)", "direccion": "HOGAR ESTUDIANTIL (SALA DE ESTUDIO) -ITUZAINGÓ  352", "nombreNorm": "HOGAR ESTUDIANTIL (SALA DE ESTUDIO)", "localidad": "TACUAREMBÓ", "series": ["TAA"], "circuitos": [6], "habilitados": 407, "ranges": [["TAA", 33627, 35258]]}, {"localId": "tacuarembo-L004", "lat": -31.7162079, "lon": -55.9761307, "nombre": "BPS", "direccion": "BPS -GRAL. ARTIGAS 266 esq. 33", "nombreNorm": "BPS", "localidad": "TACUAREMBÓ", "series": ["TAA"], "circuitos": [7, 8], "habilitados": 811, "ranges": [["TAA", 35259, 37102], ["TAA", 37103, 38767]]}, {"localId": "tacuarembo-L005", "lat": -31.7102989, "lon": -55.9771093, "nombre": "ESCUELAS N° 1 Y 2", "direccion": "ESCUELAS N° 1 Y 2  -18 de Julio 202 esq. Gral. Artigas", "nombreNorm": "ESCUELAS N° 1 Y 2", "localidad": "TACUAREMBÓ", "series": ["TAA"], "circuitos": [9, 10, 11, 12, 14, 28, 29, 30, 39, 40, 41], "habilitados": 4457, "ranges": [["TAA", 38768, 40114], ["TAA", 40115, 41212], ["TAA", 41213, 42502], ["TAA", 42503, 43576], ["TAA", 44824, 45825], ["TAA", 58022, 58699], ["TAA", 58700, 59390], ["TAA", 59391, 60067], ["TAA", 65221, 65748], ["TAA", 65749, 66296], ["TAA", 66297, 66871]]}, {"localId": "tacuarembo-L006", "lat": -31.7103067, "lon": -55.9782383, "nombre": "IDT", "direccion": "IDT- OFICINA DE DIRECCIÓN DE IMPOSITIVA -GRAL. FLORES  S/N esq. Gral. Flores", "nombreNorm": "IDT", "localidad": "TACUAREMBÓ", "series": ["TAA"], "circuitos": [13], "habilitados": 408, "ranges": [["TAA", 43577, 44823]]}, {"localId": "tacuarembo-L007", "lat": -31.7154328, "lon": -55.9743239, "nombre": "CASA DE LA CULTURA", "direccion": "CASA DE LA CULTURA-Sarandi 256 esq. 33", "nombreNorm": "CASA DE LA CULTURA", "localidad": "TACUAREMBÓ", "series": ["TAA"], "circuitos": [15, 16, 17], "habilitados": 1219, "ranges": [["TAA", 45826, 46810], ["TAA", 46811, 48007], ["TAA", 48008, 49876]]}, {"localId": "tacuarembo-L008", "lat": -31.7194262, "lon": -55.986511, "nombre": "ESCUELA N° 8", "direccion": "ESCUELA N° 8 -TACUAREMBÓ 470", "nombreNorm": "ESCUELA N° 8", "localidad": "TACUAREMBÓ", "series": ["TAA"], "circuitos": [18, 19, 20], "habilitados": 1220, "ranges": [["TAA", 49877, 50714], ["TAA", 50715, 51493], ["TAA", 51494, 52404]]}, {"localId": "tacuarembo-L009", "lat": -31.7148125, "lon": -55.9847699, "nombre": "OFICINA DE OSE", "direccion": "OFICINA DE OSE -18 de julio esq catalina", "nombreNorm": "OFICINA DE OSE", "localidad": "TACUAREMBÓ", "series": ["TAA"], "circuitos": [21, 22], "habilitados": 807, "ranges": [["TAA", 52405, 53587], ["TAA", 53588, 54404]]}, {"localId": "tacuarembo-L010", "lat": -31.7150035, "lon": -55.9823266, "nombre": "CLUB TACUAREMBÓ", "direccion": "CLUB TACUAREMBÓ-18 DE JULIO 288 esq. Whasington Beltran", "nombreNorm": "CLUB TACUAREMBO", "localidad": "TACUAREMBÓ", "series": ["TAA"], "circuitos": [23, 24, 25], "habilitados": 1217, "ranges": [["TAA", 54405, 55168], ["TAA", 55169, 55926], ["TAA", 55927, 56624]]}, {"localId": "tacuarembo-L011", "lat": -31.7128377, "lon": -55.9798705, "nombre": "CLUB DEMOCRÁTICO", "direccion": "CLUB DEMOCRÁTICO -18 de Julio 214 esq. Ituzaingo", "nombreNorm": "CLUB DEMOCRATICO", "localidad": "TACUAREMBÓ", "series": ["TAA"], "circuitos": [26, 27], "habilitados": 808, "ranges": [["TAA", 56625, 57322], ["TAA", 57323, 58021]]}, {"localId": "tacuarembo-L012", "lat": -31.7121012, "lon": -55.9789795, "nombre": "IMPOSITIVA", "direccion": "IMPOSITIVA -18 de Julio  180 esq. Joaquín Suárez", "nombreNorm": "IMPOSITIVA", "localidad": "TACUAREMBÓ", "series": ["TAA"], "circuitos": [31, 32], "habilitados": 810, "ranges": [["TAA", 60068, 60720], ["TAA", 60721, 61446]]}, {"localId": "tacuarembo-L013", "lat": -31.7072576, "lon": -55.9753684, "nombre": "IDT", "direccion": "IDT- OF. DEPORTE, TURISMO Y JUVENTUD -Parque Rodo  esq. 25 de Mayo", "nombreNorm": "IDT", "localidad": "TACUAREMBÓ", "series": ["TAA"], "circuitos": [33], "habilitados": 404, "ranges": [["TAA", 61447, 62140]]}, {"localId": "tacuarembo-L014", "lat": -31.7066032, "lon": -55.9754233, "nombre": "DIREC. DE VIALIDAD", "direccion": "DIREC. DE VIALIDAD -Av. Aparicio Saravia  190 esq. 25 de mayo", "nombreNorm": "DIREC. DE VIALIDAD", "localidad": "TACUAREMBÓ", "series": ["TAA"], "circuitos": [34], "habilitados": 403, "ranges": [["TAA", 62141, 62765]]}, {"localId": "tacuarembo-L015", "lat": -31.7062116, "lon": -55.9781539, "nombre": "DIREC. DE VIALIDAD", "direccion": "DIREC. DE VIALIDAD -Rivera S/n S/n esq. Aparicio Saravia", "nombreNorm": "DIREC. DE VIALIDAD", "localidad": "TACUAREMBÓ", "series": ["TAA"], "circuitos": [35, 36], "habilitados": 810, "ranges": [["TAA", 62766, 63350], ["TAA", 63351, 63955]]}, {"localId": "tacuarembo-L016", "lat": -31.70647, "lon": -55.9754983, "nombre": "ESCUELA Nº 118", "direccion": "ESCUELA Nº 118 -18 de Julio  61 esq. Florencio Sanchez", "nombreNorm": "ESCUELA Nº 118", "localidad": "TACUAREMBÓ", "series": ["TAA"], "circuitos": [37, 38], "habilitados": 811, "ranges": [["TAA", 63956, 64616], ["TAA", 64617, 65220]]}, {"localId": "tacuarembo-L017", "lat": -31.7104843, "lon": -55.978885, "nombre": "INSTITUTO DE COLONIZACIÓN", "direccion": "INSTITUTO DE COLONIZACIÓN-25 de mayo 149", "nombreNorm": "INSTITUTO DE COLONIZACION", "localidad": "TACUAREMBÓ", "series": ["TAA"], "circuitos": [42, 43], "habilitados": 803, "ranges": [["TAA", 66872, 67425], ["TAA", 67426, 68014]]}, {"localId": "tacuarembo-L018", "lat": -31.7119489, "lon": -55.9803623, "nombre": "CAT", "direccion": "CAT -25 de mayo 203", "nombreNorm": "CAT", "localidad": "TACUAREMBÓ", "series": ["TAA"], "circuitos": [44, 45], "habilitados": 810, "ranges": [["TAA", 68015, 68608], ["TAA", 68609, 69154]]}, {"localId": "tacuarembo-L019", "lat": -31.7124785, "lon": -55.9836046, "nombre": "LICEO N° 3", "direccion": "LICEO N° 3 -Dr. Ivo Ferreira  263", "nombreNorm": "LICEO N° 3", "localidad": "TACUAREMBÓ", "series": ["TAA"], "circuitos": [46, 47, 48], "habilitados": 1214, "ranges": [["TAA", 69155, 69661], ["TAA", 69662, 70161], ["TAA", 70162, 70651]]}, {"localId": "tacuarembo-L020", "lat": -31.7138097, "lon": -55.9851684, "nombre": "INSTITUTO DE FORMACIÓN DOCENTE", "direccion": "INSTITUTO DE FORMACIÓN DOCENTE -DR. IVO FERREIRA 320", "nombreNorm": "INSTITUTO DE FORMACION DOCENTE", "localidad": "TACUAREMBÓ", "series": ["TAA"], "circuitos": [49, 50, 51, 52], "habilitados": 1609, "ranges": [["TAA", 70652, 71146], ["TAA", 71147, 71646], ["TAA", 71647, 72146], ["TAA", 72147, 72628]]}, {"localId": "tacuarembo-L021", "lat": -31.7135592, "lon": -55.9910381, "nombre": "UTU", "direccion": "UTU -CÉSAR ORTIZ Y AYALA ESQ. WILSON FERREIRA s.n", "nombreNorm": "UTU", "localidad": "TACUAREMBÓ", "series": ["TAA"], "circuitos": [53, 54], "habilitados": 803, "ranges": [["TAA", 72629, 73118], ["TAA", 73119, 73589]]}, {"localId": "tacuarembo-L022", "lat": -31.7133209, "lon": -55.9869538, "nombre": "UTU TBÓ", "direccion": "UTU TBÓ- LÍBER SEREGNI S/N ENTRE ORTIZ Y AYALA Y DR. CATALINA s.n", "nombreNorm": "UTU TBO", "localidad": "TACUAREMBÓ", "series": ["TAA"], "circuitos": [55, 56], "habilitados": 808, "ranges": [["TAA", 73590, 74040], ["TAA", 74041, 74501]]}, {"localId": "tacuarembo-L023", "lat": -31.7136581, "lon": -55.9830288, "nombre": "LICEO Nº 1", "direccion": "LICEO Nº 1-DR. IVO FERREIRA 355", "nombreNorm": "LICEO Nº 1", "localidad": "TACUAREMBÓ", "series": ["TAA"], "circuitos": [57, 58, 59, 60], "habilitados": 1501, "ranges": [["TAA", 74502, 74962], ["TAA", 74963, 75398], ["TAA", 75399, 75819], ["TAA", 75820, 76172]]}, {"localId": "tacuarembo-L024", "lat": -31.725601, "lon": -55.9757166, "nombre": "LICEO Nº 2", "direccion": "LICEO Nº 2  -AMÉRICO CAORSI S/N  S/N", "nombreNorm": "LICEO Nº 2", "localidad": "Bº FERROCARRIL", "series": ["TAB"], "circuitos": [61, 62, 63, 64, 65, 66], "habilitados": 2414, "ranges": [["TAB", 1, 1862], ["TAB", 1863, 3023], ["TAB", 3024, 3974], ["TAB", 3975, 4968], ["TAB", 4969, 5778], ["TAB", 5779, 6650]]}, {"localId": "tacuarembo-L025", "lat": -31.7280132, "lon": -55.9774575, "nombre": "SALÓN COMAVITA", "direccion": "SALÓN COMAVITA -AMÉRICO CAORSI S/N  S/N", "nombreNorm": "SALON COMAVITA", "localidad": "Bº FERROCARRIL", "series": ["TAB"], "circuitos": [67], "habilitados": 400, "ranges": [["TAB", 6651, 7499]]}, {"localId": "tacuarembo-L026", "lat": -31.7242341, "lon": -55.9711903, "nombre": "JARDÍN DE INFANTES Nº 150", "direccion": "JARDÍN DE INFANTES Nº 150 - AMÉRICO CAORSI S/N  S/N", "nombreNorm": "JARDIN DE INFANTES Nº 150", "localidad": "Bº FERROCARRIL", "series": ["TAB"], "circuitos": [68, 69], "habilitados": 804, "ranges": [["TAB", 7500, 8190], ["TAB", 8191, 8847]]}, {"localId": "tacuarembo-L027", "lat": -31.7246557, "lon": -55.9736275, "nombre": "CENTRO DE BARRIO Nº 1 (INDA)", "direccion": "CENTRO DE BARRIO Nº 1 (INDA)-PABLO RÍOS S/N", "nombreNorm": "CENTRO DE BARRIO Nº 1 (INDA)", "localidad": "Bº FERROCARRIL", "series": ["TAB"], "circuitos": [70, 71, 72, 73], "habilitados": 1602, "ranges": [["TAB", 8848, 9481], ["TAB", 9482, 10144], ["TAB", 10145, 10766], ["TAB", 10767, 11329]]}, {"localId": "tacuarembo-L028", "lat": -31.7232948, "lon": -55.9753684, "nombre": "ESCUELA Nº 11", "direccion": "ESCUELA Nº 11-SILVEIRA LIZARAZÚ ESQ. PABLO RÍOS  S/N", "nombreNorm": "ESCUELA Nº 11", "localidad": "Bº FERROCARRIL", "series": ["TAB"], "circuitos": [74, 75, 76, 77, 78], "habilitados": 2002, "ranges": [["TAB", 11330, 11921], ["TAB", 11922, 12427], ["TAB", 12428, 12959], ["TAB", 12960, 13479], ["TAB", 13480, 14006]]}, {"localId": "tacuarembo-L029", "lat": -31.7212367, "lon": -55.9740917, "nombre": "ESCUELA Nº 127", "direccion": "ESCUELA Nº 127 -IETO CLAVERA ESQ. ISAAC FERNÁNDEZ", "nombreNorm": "ESCUELA Nº 127", "localidad": "Bº FERROCARRIL", "series": ["TAB"], "circuitos": [79, 80, 81], "habilitados": 1197, "ranges": [["TAB", 14007, 14478], ["TAB", 14479, 14956], ["TAB", 14957, 15426]]}, {"localId": "tacuarembo-L030", "lat": -31.7222464, "lon": -55.9750202, "nombre": "SEDE DE RETIRADOS MILITARES", "direccion": "SEDE DE RETIRADOS MILITARES  -MACIEL Nº 57", "nombreNorm": "SEDE DE RETIRADOS MILITARES", "localidad": "Bº FERROCARRIL", "series": ["TAB"], "circuitos": [82, 83], "habilitados": 793, "ranges": [["TAB", 15427, 15895], ["TAB", 15896, 16354]]}, {"localId": "tacuarembo-L031", "lat": -31.7305337, "lon": -55.9842171, "nombre": "CENTRO DE BARRIO Nº 4", "direccion": "CENTRO DE BARRIO Nº 4 -AV. SAN MARTÍN S/N CASI HILARIO CORREA", "nombreNorm": "CENTRO DE BARRIO Nº 4", "localidad": "Bº TORRES", "series": ["TAB"], "circuitos": [84, 85], "habilitados": 802, "ranges": [["TAB", 16355, 16792], ["TAB", 16793, 17225]]}, {"localId": "tacuarembo-L032", "lat": -31.731519, "lon": -55.9837026, "nombre": "ESCUELA N°70", "direccion": "ESCUELA N°70-WINSTON CHURCHILL 504", "nombreNorm": "ESCUELA N°70", "localidad": "Bº TORRES", "series": ["TAB"], "circuitos": [86, 87, 88], "habilitados": 1150, "ranges": [["TAB", 17226, 17666], ["TAB", 17667, 18081], ["TAB", 18082, 18473]]}, {"localId": "tacuarembo-L033", "lat": -31.7234405, "lon": -55.9924873, "nombre": "LICEO Nº 5", "direccion": "LICEO Nº 5 -25 de mayo  esq. Periodista Castro", "nombreNorm": "LICEO Nº 5", "localidad": "Bº ARTIGAS", "series": ["TAC"], "circuitos": [89, 90, 91, 92], "habilitados": 1222, "ranges": [["TAC", 1, 332], ["TAC", 333, 666], ["TAC", 667, 1001], ["TAC", 1002, 1322]]}, {"localId": "tacuarembo-L034", "lat": -31.713168, "lon": -55.9831626, "nombre": "ESCUELA Nº 86", "direccion": "ESCUELA Nº 86 -AV. DOMINGO ARENA  720", "nombreNorm": "ESCUELA Nº 86", "localidad": "Bº CENTENARIO", "series": ["TAD"], "circuitos": [93, 94, 95, 96], "habilitados": 1199, "ranges": [["TAD", 1, 342], ["TAD", 343, 675], ["TAD", 676, 1000], ["TAD", 1001, 1316]]}, {"localId": "tacuarembo-L035", "lat": -31.42751, "lon": -55.98322, "nombre": "ESCUELA Nº 85", "direccion": "ESCUELA Nº 85-", "nombreNorm": "ESCUELA Nº 85", "localidad": "CAÑAS", "series": ["TBA"], "circuitos": [97, 98], "habilitados": 321, "ranges": [["TBA", 1, 2683], ["TBA", 2684, 2938]]}, {"localId": "tacuarembo-L036", "lat": -31.477611, "lon": -55.832231, "nombre": "ESCUELA  Nº 36", "direccion": "ESCUELA  Nº 36 -", "nombreNorm": "ESCUELA  Nº 36", "localidad": "PASO DEL CERRO", "series": ["TBB"], "circuitos": [99, 100], "habilitados": 492, "ranges": [["TBB", 1, 2125], ["TBB", 2126, 2409]]}, {"localId": "tacuarembo-L037", "lat": -31.603664, "lon": -55.839964, "nombre": "ESCUELA Nº 21", "direccion": "ESCUELA Nº 21-", "nombreNorm": "ESCUELA Nº 21", "localidad": "BAÑADO DE ROCHA", "series": ["TBC"], "circuitos": [101], "habilitados": 173, "ranges": [["TBC", 1, 1522]]}, {"localId": "tacuarembo-L038", "lat": -31.7816388, "lon": -55.6986805, "nombre": "ESCUELA Nº 20", "direccion": "ESCUELA Nº 20-", "nombreNorm": "ESCUELA Nº 20", "localidad": "CUCHILLA DEL OMBÚ", "series": ["TBD"], "circuitos": [102], "habilitados": 299, "ranges": [["TBD", 1, 2553]]}, {"localId": "tacuarembo-L039", "lat": -31.8779362, "lon": -55.4570066, "nombre": "ESCUELA Nº 73", "direccion": "ESCUELA Nº 73-RUTA 44  S/N", "nombreNorm": "ESCUELA Nº 73", "localidad": "VILLA ANSINA", "series": ["TBE"], "circuitos": [103, 104, 105, 106, 107], "habilitados": 1433, "ranges": [["TBE", 1, 3460], ["TBE", 3461, 4229], ["TBE", 4230, 4801], ["TBE", 4802, 5302], ["TBE", 5303, 5740]]}, {"localId": "tacuarembo-L040", "lat": -31.8785698, "lon": -55.4597331, "nombre": "LICEO LOCAL DR. MAURICIO LÓPEZ LOMBA", "direccion": "LICEO LOCAL DR. MAURICIO LÓPEZ LOMBA -DR. MAURICIO LÓPEZ LOMBA - RUTA 44  S/N", "nombreNorm": "LICEO LOCAL DR. MAURICIO LOPEZ LOMBA", "localidad": "VILLA ANSINA", "series": ["TBE"], "circuitos": [108, 109, 110, 111, 112], "habilitados": 1420, "ranges": [["TBE", 5741, 6119], ["TBE", 6120, 6487], ["TBE", 6488, 6814], ["TBE", 6815, 7122], ["TBE", 7123, 7414]]}, {"localId": "tacuarembo-L041", "lat": -31.7174058, "lon": -55.9890838, "nombre": "ESCUELA Nº 5", "direccion": "ESCUELA Nº 5 -Av. Oliver S/N esq. Av. Leandro Gomez", "nombreNorm": "ESCUELA Nº 5", "localidad": "Bº EL MOLINO", "series": ["TCA"], "circuitos": [113, 114, 115], "habilitados": 1208, "ranges": [["TCA", 1, 3255], ["TCA", 3256, 4093], ["TCA", 4094, 4879]]}, {"localId": "tacuarembo-L042", "lat": -31.7084513, "lon": -55.9980866, "nombre": "CENTRO DE BARRIO Nº 5", "direccion": "CENTRO DE BARRIO Nº 5 -Av. Oliver S/N", "nombreNorm": "CENTRO DE BARRIO Nº 5", "localidad": "Bº EL MOLINO", "series": ["TCA"], "circuitos": [116, 117], "habilitados": 808, "ranges": [["TCA", 4880, 5506], ["TCA", 5507, 6057]]}, {"localId": "tacuarembo-L043", "lat": -31.7070877, "lon": -55.9890403, "nombre": "POLO TECNOLÓGICO", "direccion": "POLO TECNOLÓGICO -Ernesto Michoelson  esq. Sarandi", "nombreNorm": "POLO TECNOLOGICO", "localidad": "Bº MONTEVIDEO", "series": ["TCA"], "circuitos": [118, 119, 120], "habilitados": 1209, "ranges": [["TCA", 6058, 6582], ["TCA", 6583, 7085], ["TCA", 7086, 7562]]}, {"localId": "tacuarembo-L044", "lat": -31.7120903, "lon": -55.9892969, "nombre": "ESCUELA Nº 7", "direccion": "ESCUELA Nº 7 -Av. Oribe  esq. W. Beltran", "nombreNorm": "ESCUELA Nº 7", "localidad": "Bº MONTEVIDEO", "series": ["TCA"], "circuitos": [121, 122, 123], "habilitados": 1175, "ranges": [["TCA", 7563, 8007], ["TCA", 8008, 8446], ["TCA", 8447, 8856]]}, {"localId": "tacuarembo-L045", "lat": -317366123.0, "lon": -560408296.0, "nombre": "ESCUELA N° 18", "direccion": "ESCUELA N° 18-Camino vecinal", "nombreNorm": "ESCUELA N° 18", "localidad": "LA ALDEA", "series": ["TCB"], "circuitos": [124, 125], "habilitados": 501, "ranges": [["TCB", 1, 1919], ["TCB", 1920, 2221]]}, {"localId": "tacuarembo-L046", "lat": -31.6798763, "lon": -56.0588141, "nombre": "ESCUELA Nº 57", "direccion": "ESCUELA Nº 57 -Camino vecinal  esq. Ruta 31", "nombreNorm": "ESCUELA Nº 57", "localidad": "ZAPARÁ", "series": ["TCC"], "circuitos": [126, 127, 128], "habilitados": 613, "ranges": [["TCC", 1, 2045], ["TCC", 2046, 2386], ["TCC", 2387, 2642]]}, {"localId": "tacuarembo-L047", "lat": -31.454599, "lon": -56.254987, "nombre": "ESCUELA Nº 76", "direccion": "ESCUELA Nº 76-", "nombreNorm": "ESCUELA Nº 76", "localidad": "TACUAREMBÓ CHICO", "series": ["TCD", "TCE"], "circuitos": [129], "habilitados": 288, "ranges": [["TCD", 1, 709], ["TCE", 1, 971]]}, {"localId": "tacuarembo-L048", "lat": -31.565598, "lon": -56.042215, "nombre": "ESCUELA Nº 35", "direccion": "ESCUELA Nº 35-", "nombreNorm": "ESCUELA Nº 35", "localidad": "PASO DE CEFERINO", "series": ["TCF"], "circuitos": [130], "habilitados": 152, "ranges": [["TCF", 1, 2086]]}, {"localId": "tacuarembo-L049", "lat": -31.6986217, "lon": -55.9668317, "nombre": "CENTRAL FÚTBOL CLUB", "direccion": "CENTRAL FÚTBOL CLUB - -MANUEL FREIRE ESQ. NORBERTO ORTIZ", "nombreNorm": "CENTRAL FUTBOL CLUB", "localidad": "Bº J. D. LÓPEZ", "series": ["TCG"], "circuitos": [131, 132, 133], "habilitados": 1188, "ranges": [["TCG", 1, 4393], ["TCG", 4394, 5588], ["TCG", 5589, 6426]]}, {"localId": "tacuarembo-L050", "lat": -31.7125467, "lon": -56.0042112, "nombre": "PASITO CENTRAL", "direccion": "PASITO CENTRAL-LUCIANO ROMERO  509", "nombreNorm": "PASITO CENTRAL", "localidad": "Bº J. D. LÓPEZ", "series": ["TCG"], "circuitos": [134, 135], "habilitados": 795, "ranges": [["TCG", 6427, 7321], ["TCG", 7322, 8023]]}, {"localId": "tacuarembo-L051", "lat": -31.699473, "lon": -55.9703936, "nombre": "LICEO N°4", "direccion": "LICEO N°4 -JOSÉ LEGUIZAMÓN ESQ. JUAN SPIKERMAN", "nombreNorm": "LICEO N°4", "localidad": "Bº J. D. LÓPEZ", "series": ["TCG"], "circuitos": [136, 137, 138, 139], "habilitados": 1580, "ranges": [["TCG", 8024, 8610], ["TCG", 8611, 9231], ["TCG", 9232, 9771], ["TCG", 9772, 10274]]}, {"localId": "tacuarembo-L052", "lat": -31.6978202, "lon": -55.9729107, "nombre": "ESCUELA AL AIRE LIBRE", "direccion": "ESCUELA AL AIRE LIBRE-HÉCTOR GUTIÉRREZ RUIZ CASI RAMÓN ORTIZ", "nombreNorm": "ESCUELA AL AIRE LIBRE", "localidad": "Bº ETCHEVERRY", "series": ["TCG"], "circuitos": [140, 141, 142, 143], "habilitados": 1571, "ranges": [["TCG", 10275, 10800], ["TCG", 10801, 11271], ["TCG", 11272, 11725], ["TCG", 11726, 12182]]}, {"localId": "tacuarembo-L053", "lat": -31.7109566, "lon": -55.9780309, "nombre": "ESCUELA Nº 124", "direccion": "ESCUELA Nº 124-Juan Artigas y Hernandarias", "nombreNorm": "ESCUELA Nº 124", "localidad": "Bº ETCHEVERRY", "series": ["TCG"], "circuitos": [144, 145, 146, 147], "habilitados": 1533, "ranges": [["TCG", 12183, 12616], ["TCG", 12617, 13052], ["TCG", 13053, 13458], ["TCG", 13459, 13859]]}, {"localId": "tacuarembo-L054", "lat": -31.7149291, "lon": -55.9925576, "nombre": "CENTRO SOCIO CULTURAL SAN GABRIEL", "direccion": "CENTRO SOCIO CULTURAL SAN GABRIEL -AV. PTE. DR. JORGE BATLLE  S/N", "nombreNorm": "CENTRO SOCIO CULTURAL SAN GABRIEL", "localidad": "Bº SAN GABRIEL", "series": ["TCH"], "circuitos": [148, 149], "habilitados": 604, "ranges": [["TCH", 1, 353], ["TCH", 354, 688]]}, {"localId": "tacuarembo-L055", "lat": -31.719183, "lon": -56.000152, "nombre": "COVIFUTAC", "direccion": "COVIFUTAC-Alfredo Zitarrosa s.n esq. Av. Jorge Batlle", "nombreNorm": "COVIFUTAC", "localidad": "Bº SAN GABRIEL", "series": ["TCH"], "circuitos": [150, 151], "habilitados": 576, "ranges": [["TCH", 689, 1004], ["TCH", 1005, 1316]]}, {"localId": "tacuarembo-L056", "lat": -31.8811788, "lon": -56.2383672, "nombre": "ESCUELA Nº 64", "direccion": "ESCUELA Nº 64 -AV. DR. ALIPIO FERREIRA  S/n esq. 20", "nombreNorm": "ESCUELA Nº 64", "localidad": "VILLA TAMBORES", "series": ["TDA"], "circuitos": [152, 153, 154, 155], "habilitados": 981, "ranges": [["TDA", 1, 2267], ["TDA", 2268, 2780], ["TDA", 2781, 3125], ["TDA", 3126, 3393]]}, {"localId": "tacuarembo-L057", "lat": -31.886202, "lon": -55.955096, "nombre": "ESCUELA Nº 53", "direccion": "ESCUELA Nº 53-", "nombreNorm": "ESCUELA Nº 53", "localidad": "BATOVÍ", "series": ["TDB"], "circuitos": [156, 157, 158, 159, 160], "habilitados": 1441, "ranges": [["TDB", 1, 3664], ["TDB", 3665, 4261], ["TDB", 4262, 4680], ["TDB", 4681, 5031], ["TDB", 5032, 5338]]}, {"localId": "tacuarembo-L058", "lat": -32.146994, "lon": -56.1164377, "nombre": "LICEO LOCAL CURTINA", "direccion": "LICEO LOCAL CURTINA-Juan Antonio Lavalleja y Gutierrez Ruiz S.n", "nombreNorm": "LICEO LOCAL CURTINA", "localidad": "CURTINA", "series": ["TDC"], "circuitos": [161, 162, 163, 164], "habilitados": 1121, "ranges": [["TDC", 1, 3507], ["TDC", 3508, 3999], ["TDC", 4000, 4366], ["TDC", 4367, 4670]]}, {"localId": "tacuarembo-L059", "lat": -31.970688, "lon": -55.667536, "nombre": "ESCUELA Nº 22", "direccion": "ESCUELA Nº 22-", "nombreNorm": "ESCUELA Nº 22", "localidad": "PASO DE LOS NOVILLOS", "series": ["TDD"], "circuitos": [165], "habilitados": 147, "ranges": [["TDD", 1, 1651]]}, {"localId": "tacuarembo-L060", "lat": -32.224221, "lon": -55.732096, "nombre": "SALÓN MULTIUSO", "direccion": "SALÓN MULTIUSO-", "nombreNorm": "SALON MULTIUSO", "localidad": "CLARA", "series": ["TDE"], "circuitos": [166, 167], "habilitados": 325, "ranges": [["TDE", 1, 2527], ["TDE", 2528, 2760]]}, {"localId": "tacuarembo-L061", "lat": -32.348491, "lon": -55.88337, "nombre": "ESCUELA Nº 63", "direccion": "ESCUELA Nº 63-", "nombreNorm": "ESCUELA Nº 63", "localidad": "PASO HONDO", "series": ["TEA"], "circuitos": [168], "habilitados": 219, "ranges": [["TEA", 1, 1660]]}, {"localId": "tacuarembo-L062", "lat": -32.166931, "lon": -55.942482, "nombre": "ESCUELA Nº 55", "direccion": "ESCUELA Nº 55-", "nombreNorm": "ESCUELA Nº 55", "localidad": "LOS CUADRADOS", "series": ["TEB"], "circuitos": [169], "habilitados": 140, "ranges": [["TEB", 1, 1683]]}, {"localId": "tacuarembo-L063", "lat": -32.538157, "lon": -55.870955, "nombre": "ESCUELA N°24", "direccion": "ESCUELA N°24-", "nombreNorm": "ESCUELA N°24", "localidad": "CAÑADA DEL ESTADO", "series": ["TEC"], "circuitos": [170], "habilitados": 13, "ranges": [["TEC", 1, 870]]}, {"localId": "tacuarembo-L064", "lat": -32.6184955, "lon": -55.8365816, "nombre": "JARDÍN 156", "direccion": "JARDÍN 156 -RAMÓN SILVA  149", "nombreNorm": "JARDIN 156", "localidad": "SAN GREGORIO DE POLANCO", "series": ["TED"], "circuitos": [171, 172], "habilitados": 583, "ranges": [["TED", 1, 5576], ["TED", 5577, 6329]]}, {"localId": "tacuarembo-L065", "lat": -32.617946, "lon": -55.833524, "nombre": "ESCUELA Nº 3", "direccion": "ESCUELA Nº 3 -ARTURO MOLLO ESQ. VARELA", "nombreNorm": "ESCUELA Nº 3", "localidad": "SAN GREGORIO DE POLANCO", "series": ["TED"], "circuitos": [173, 174], "habilitados": 586, "ranges": [["TED", 6330, 6988], ["TED", 6989, 7524]]}, {"localId": "tacuarembo-L066", "lat": -32.617082, "lon": -55.834697, "nombre": "BPS", "direccion": "BPS-SAN GREGORIO -GRAL. ARTIGAS CASI ARTURO MOLLO", "nombreNorm": "BPS", "localidad": "SAN GREGORIO DE POLANCO", "series": ["TED"], "circuitos": [175], "habilitados": 293, "ranges": [["TED", 7525, 8019]]}, {"localId": "tacuarembo-L067", "lat": -32.61365, "lon": -55.832738, "nombre": "ESCUELA Nº 147", "direccion": "ESCUELA Nº 147 -JOSÉ PEDRO VARELA Y AMADEO ABRIOLA", "nombreNorm": "ESCUELA Nº 147", "localidad": "SAN GREGORIO DE POLANCO", "series": ["TED"], "circuitos": [176, 177, 178], "habilitados": 877, "ranges": [["TED", 8020, 8498], ["TED", 8499, 8927], ["TED", 8928, 9330]]}, {"localId": "tacuarembo-L068", "lat": -32.616714, "lon": -55.833539, "nombre": "LICEO LOCAL SAN GREGORIO", "direccion": "LICEO LOCAL SAN GREGORIO-JOSÉ PEDRO VARELA Y PEDRO MARÍA CHIESA", "nombreNorm": "LICEO LOCAL SAN GREGORIO", "localidad": "SAN GREGORIO DE POLANCO", "series": ["TED"], "circuitos": [179, 180, 181, 182], "habilitados": 1158, "ranges": [["TED", 9331, 9701], ["TED", 9702, 10051], ["TED", 10052, 10369], ["TED", 10370, 10668]]}, {"localId": "tacuarembo-L069", "lat": -32.40486, "lon": -56.180466, "nombre": "ESCUELA Nº 4", "direccion": "ESCUELA Nº 4 -ACHAR", "nombreNorm": "ESCUELA Nº 4", "localidad": "ACHAR", "series": ["TFA"], "circuitos": [183, 184, 185], "habilitados": 783, "ranges": [["TFA", 1, 2690], ["TFA", 2691, 3099], ["TFA", 3100, 3396]]}, {"localId": "tacuarembo-L070", "lat": -32.4936385, "lon": -56.3560493, "nombre": "ESCUELA Nº 67", "direccion": "ESCUELA Nº 67-PERALTA S/N esq. Ruta 5", "nombreNorm": "ESCUELA Nº 67", "localidad": "PERALTA", "series": ["TFB"], "circuitos": [186], "habilitados": 290, "ranges": [["TFB", 1, 1613]]}, {"localId": "tacuarembo-L071", "lat": -32.4935963, "lon": -56.3560263, "nombre": "ESCUELA Nº 10", "direccion": "ESCUELA Nº 10-", "nombreNorm": "ESCUELA Nº 10", "localidad": "CARDOZO GRANDE", "series": ["TFC"], "circuitos": [187], "habilitados": 37, "ranges": [["TFC", 1, 983]]}, {"localId": "tacuarembo-L072", "lat": -32.80917, "lon": -56.51324, "nombre": "LICEO PASO DE LOS TOROS", "direccion": "LICEO PASO DE LOS TOROS-Aparicio Saravia entre A. Puyol y W. Ferreira s.n", "nombreNorm": "LICEO PASO DE LOS TOROS", "localidad": "PASO DE LOS TOROS", "series": ["TFD"], "circuitos": [188, 189, 190, 191], "habilitados": 1579, "ranges": [["TFD", 1, 13952], ["TFD", 13953, 16316], ["TFD", 16317, 18137], ["TFD", 18138, 19436]]}, {"localId": "tacuarembo-L073", "lat": -32.80911, "lon": -56.51399, "nombre": "COMPLEJO MUNICIPAL", "direccion": "COMPLEJO MUNICIPAL-Wilson Ferreira 475", "nombreNorm": "COMPLEJO MUNICIPAL", "localidad": "PASO DE LOS TOROS", "series": ["TFD"], "circuitos": [192, 193], "habilitados": 791, "ranges": [["TFD", 19437, 20535], ["TFD", 20536, 21619]]}, {"localId": "tacuarembo-L074", "lat": -32.81108, "lon": -56.51823, "nombre": "ESCUELA  Nº 12", "direccion": "ESCUELA  Nº 12 -18 DE JULIO  ENTRE V. BÁLSAMO Y P. B. DE GODOY s.n", "nombreNorm": "ESCUELA  Nº 12", "localidad": "PASO DE LOS TOROS", "series": ["TFD"], "circuitos": [194, 195, 196, 197], "habilitados": 1576, "ranges": [["TFD", 21620, 23088], ["TFD", 23089, 24150], ["TFD", 24151, 25312], ["TFD", 25313, 26064]]}, {"localId": "tacuarembo-L075", "lat": -32.81191, "lon": -56.50982, "nombre": "BPS", "direccion": "BPS - D.G.I-LEANDRO GÓMEZ  534", "nombreNorm": "BPS", "localidad": "PASO DE LOS TOROS", "series": ["TFD"], "circuitos": [198, 199, 200], "habilitados": 1173, "ranges": [["TFD", 26065, 26937], ["TFD", 26938, 27695], ["TFD", 27696, 28423]]}, {"localId": "tacuarembo-L076", "lat": -32.81226, "lon": -56.50891, "nombre": "GIMNASIO LOCAL", "direccion": "GIMNASIO LOCAL -SARANDÍ  382", "nombreNorm": "GIMNASIO LOCAL", "localidad": "PASO DE LOS TOROS", "series": ["TFD"], "circuitos": [201, 202, 203], "habilitados": 1183, "ranges": [["TFD", 28424, 29189], ["TFD", 29190, 29820], ["TFD", 29821, 30501]]}, {"localId": "tacuarembo-L077", "lat": -32.81258, "lon": -56.50909, "nombre": "MUNICIPIO LOCAL", "direccion": "MUNICIPIO LOCAL -SARANDÍ ESQ. LEANDRO GÓMEZ 500", "nombreNorm": "MUNICIPIO LOCAL", "localidad": "PASO DE LOS TOROS", "series": ["TFD"], "circuitos": [204], "habilitados": 395, "ranges": [["TFD", 30502, 31098]]}, {"localId": "tacuarembo-L078", "lat": -32.81189, "lon": -56.50682, "nombre": "HOGAR ESTUDIANTIL", "direccion": "HOGAR ESTUDIANTIL -JOSÉ PEDRO VARELA  434", "nombreNorm": "HOGAR ESTUDIANTIL", "localidad": "PASO DE LOS TOROS", "series": ["TFD"], "circuitos": [205, 206, 207], "habilitados": 1191, "ranges": [["TFD", 31099, 31642], ["TFD", 31643, 32200], ["TFD", 32201, 32711]]}, {"localId": "tacuarembo-L079", "lat": -32.81515, "lon": -56.50996, "nombre": "CASA DE LOS DEPORTES", "direccion": "CASA DE LOS DEPORTES - DR. JULIO MONESTIER  423", "nombreNorm": "CASA DE LOS DEPORTES", "localidad": "PASO DE LOS TOROS", "series": ["TFD"], "circuitos": [208], "habilitados": 395, "ranges": [["TFD", 32712, 33199]]}, {"localId": "tacuarembo-L080", "lat": -32.81293, "lon": -56.50855, "nombre": "ESCUELA Nº 141", "direccion": "ESCUELA Nº 141 -JOSÉ PEDRO VARELA ESQ. LEANDRO GOMEZ 351", "nombreNorm": "ESCUELA Nº 141", "localidad": "PASO DE LOS TOROS", "series": ["TFD"], "circuitos": [209, 210], "habilitados": 791, "ranges": [["TFD", 33200, 33700], ["TFD", 33701, 34167]]}, {"localId": "tacuarembo-L081", "lat": -32.81269, "lon": -56.50405, "nombre": "ESCUELA DE UTU", "direccion": "ESCUELA DE UTU -BRIGADIER GRAL. MANUEL ORIBE  338", "nombreNorm": "ESCUELA DE UTU", "localidad": "PASO DE LOS TOROS", "series": ["TFD"], "circuitos": [211, 212], "habilitados": 793, "ranges": [["TFD", 34168, 34629], ["TFD", 34630, 35079]]}, {"localId": "tacuarembo-L082", "lat": -32.8, "lon": -56.51733, "nombre": "ESCUELA Nº 80", "direccion": "ESCUELA Nº 80 - FRANCISCO DORREGO  915", "nombreNorm": "ESCUELA Nº 80", "localidad": "PASO DE LOS TOROS", "series": ["TFD"], "circuitos": [213, 214], "habilitados": 793, "ranges": [["TFD", 35080, 35542], ["TFD", 35543, 35970]]}, {"localId": "tacuarembo-L083", "lat": -32.811021, "lon": -56.516034, "nombre": "CLUB HURACÁN", "direccion": "CLUB HURACÁN-18 de Julio 870", "nombreNorm": "CLUB HURACAN", "localidad": "PASO DE LOS TOROS", "series": ["TFD"], "circuitos": [215, 216, 217], "habilitados": 1130, "ranges": [["TFD", 35971, 36384], ["TFD", 36385, 36790], ["TFD", 36791, 37183]]}, {"localId": "tacuarembo-L084", "lat": -32.0835498, "lon": -55.1860593, "nombre": "ESCUELA Nº 116", "direccion": "ESCUELA Nº 116-", "nombreNorm": "ESCUELA Nº 116", "localidad": "PUNTA DE CARRETERA", "series": ["TGA"], "circuitos": [218, 219], "habilitados": 342, "ranges": [["TGA", 1, 2250], ["TGA", 2251, 2470]]}, {"localId": "tacuarembo-L085", "lat": -31.997806, "lon": -55.105504, "nombre": "ESCUELA Nº 40", "direccion": "ESCUELA Nº 40-", "nombreNorm": "ESCUELA Nº 40", "localidad": "PUNTA DE CINCO SAUCES", "series": ["TGB"], "circuitos": [220], "habilitados": 278, "ranges": [["TGB", 1, 2383]]}, {"localId": "tacuarembo-L086", "lat": -32.1837711, "lon": -55.0120543, "nombre": "ESCUELA Nº 122", "direccion": "ESCUELA Nº 122-", "nombreNorm": "ESCUELA Nº 122", "localidad": "LAS TOSCAS DE CARAGUATÁ", "series": ["TGC"], "circuitos": [221, 222, 223], "habilitados": 866, "ranges": [["TGC", 1, 4022], ["TGC", 4023, 4651], ["TGC", 4652, 5129]]}, {"localId": "tacuarembo-L087", "lat": -32.1835636, "lon": -55.0115295, "nombre": "LICEO CARAGUATÁ", "direccion": "LICEO CARAGUATÁ-CAMINO VECINAL S.N", "nombreNorm": "LICEO CARAGUATA", "localidad": "LAS TOSCAS DE CARAGUATÁ", "series": ["TGC"], "circuitos": [224, 225, 226, 227], "habilitados": 1152, "ranges": [["TGC", 5130, 5546], ["TGC", 5547, 5915], ["TGC", 5916, 6238], ["TGC", 6239, 6535]]}, {"localId": "tacuarembo-L088", "lat": -32.130438, "lon": -54.899449, "nombre": "ESCUELA Nº 38", "direccion": "ESCUELA Nº 38-", "nombreNorm": "ESCUELA Nº 38", "localidad": "CARAGUATÁ AL NORTE", "series": ["TGD"], "circuitos": [228, 229], "habilitados": 474, "ranges": [["TGD", 1, 3630], ["TGD", 3631, 3944]]}, {"localId": "tacuarembo-L089", "lat": -32.292442, "lon": -55.220679, "nombre": "ESCUELA Nº 79", "direccion": "ESCUELA Nº 79-", "nombreNorm": "ESCUELA Nº 79", "localidad": "RINCÓN DE PEREIRA", "series": ["TGE"], "circuitos": [230], "habilitados": 195, "ranges": [["TGE", 1, 777]]}]}