{"type": "Topology", "objects": {"zonas": {"type": "GeometryCollection", "geometries": [{"type": "Point", "coordinates": [-56.409175, -30.480076], "properties": {"name": "artigas-L001", "habilitados": 266, "nombre": "ESCUELA 67"}}, {"type": "Point", "coordinates": [-56.411663, -30.502745], "properties": {"name": "artigas-L002", "habilitados": 266, "nombre": "ESCUELA 21"}}, {"type": "Point", "coordinates": [-56.4305, -30.467451], "properties": {"name": "artigas-L003", "habilitados": 532, "nombre": "ESC.14 COLONIA PINTADO"}}, {"type": "Point", "coordinates": [-56.429466, -30.522179], "properties": {"name": "artigas-L004", "habilitados": 266, "nombre": "ESCUELA 29"}}, {"type": "Point", "coordinates": [-56.783974, -30.430188], "properties": {"name": "artigas-L005", "habilitados": 182, "nombre": "ESCUELA 33"}}, {"type": "Point", "coordinates": [-56.541352, -30.422262], "properties": {"name": "artigas-L006", "habilitados": 182, "nombre": "ESCUELA 10"}}, {"type": "Point", "coordinates": [-56.468115, -30.403161], "properties": {"name": "artigas-L007", "habilitados": 408, "nombre": "JUNTA DEPTAL"}}, {"type": "Point", "coordinates": [-56.4692371, -30.4043287], "properties": {"name": "artigas-L008", "habilitados": 1611, "nombre": "ARPA"}}, {"type": "Point", "coordinates": [-56.470288, -30.403291], "properties": {"name": "artigas-L009", "habilitados": 1224, "nombre": "LICEO 1"}}, {"type": "Point", "coordinates": [-56.46982, -30.40442], "properties": {"name": "artigas-L010", "habilitados": 816, "nombre": "CASA JOVEN"}}, {"type": "Point", "coordinates": [-56.469303, -30.404266], "properties": {"name": "artigas-L011", "habilitados": 408, "nombre": "AUDITORIO MPAL"}}, {"type": "Point", "coordinates": [-56.469288, -30.404569], "properties": {"name": "artigas-L012", "habilitados": 816, "nombre": "COLEGIO JUAN PABLOII"}}, {"type": "Point", "coordinates": [-56.471628, -30.405092], "properties": {"name": "artigas-L013", "habilitados": 408, "nombre": "ESC.80 I. MUSICAL"}}, {"type": "Point", "coordinates": [-56.475635, -30.402227], "properties": {"name": "artigas-L014", "habilitados": 816, "nombre": "ESC. 8"}}, {"type": "Point", "coordinates": [-56.473112, -30.405467], "properties": {"name": "artigas-L015", "habilitados": 408, "nombre": "OSE"}}, {"type": "Point", "coordinates": [-56.47118, -30.404244], "properties": {"name": "artigas-L016", "habilitados": 1224, "nombre": "ESCUELA 37"}}, {"type": "Point", "coordinates": [-56.469576, -30.405945], "properties": {"name": "artigas-L017", "habilitados": 408, "nombre": "OF. DESARROLLO"}}, {"type": "Point", "coordinates": [-56.466867, -30.403232], "properties": {"name": "artigas-L018", "habilitados": 408, "nombre": "OF. CATASTRO"}}, {"type": "Point", "coordinates": [-56.46622, -30.40272], "properties": {"name": "artigas-L019", "habilitados": 408, "nombre": "DIR. NACIONAL DE REGISTRO"}}, {"type": "Point", "coordinates": [-56.44979, -30.43576], "properties": {"name": "artigas-L020", "habilitados": 1224, "nombre": "CLUB DEPORTIVO"}}, {"type": "Point", "coordinates": [-56.466448, -30.401627], "properties": {"name": "artigas-L021", "habilitados": 1224, "nombre": "ESC. 1 Y 2"}}, {"type": "Point", "coordinates": [-56.465972, -30.403465], "properties": {"name": "artigas-L022", "habilitados": 816, "nombre": "JARDIN 93"}}, {"type": "Point", "coordinates": [-56.467827, -30.40197], "properties": {"name": "artigas-L023", "habilitados": 408, "nombre": "INTENDENCIA"}}, {"type": "Point", "coordinates": [-56.468468, -30.401453], "properties": {"name": "artigas-L024", "habilitados": 408, "nombre": "INSP. TRABAJO"}}, {"type": "Point", "coordinates": [-56.4691358, -30.4013107], "properties": {"name": "artigas-L025", "habilitados": 816, "nombre": "DINAGUA"}}, {"type": "Point", "coordinates": [-56.46821, -30.40032], "properties": {"name": "artigas-L026", "habilitados": 1224, "nombre": "MIDES"}}, {"type": "Point", "coordinates": [-56.466539, -30.400422], "properties": {"name": "artigas-L027", "habilitados": 408, "nombre": "DGI"}}, {"type": "Point", "coordinates": [-56.46396, -30.400771], "properties": {"name": "artigas-L028", "habilitados": 408, "nombre": "SOC ITALIANA"}}, {"type": "Point", "coordinates": [-56.461229, -30.400645], "properties": {"name": "artigas-L029", "habilitados": 408, "nombre": "SOC. ESPAÑOLA"}}, {"type": "Point", "coordinates": [-56.46312, -30.400371], "properties": {"name": "artigas-L030", "habilitados": 816, "nombre": "ESC. 54"}}, {"type": "Point", "coordinates": [-56.464267, -30.399359], "properties": {"name": "artigas-L031", "habilitados": 816, "nombre": "B.P.S"}}, {"type": "Point", "coordinates": [-56.462756, -30.398109], "properties": {"name": "artigas-L032", "habilitados": 816, "nombre": "INSP. DE ESCUELAS"}}, {"type": "Point", "coordinates": [-56.462169, -30.397426], "properties": {"name": "artigas-L033", "habilitados": 408, "nombre": "AEMA"}}, {"type": "Point", "coordinates": [-56.459232, -30.396118], "properties": {"name": "artigas-L034", "habilitados": 1224, "nombre": "ESC. 72"}}, {"type": "Point", "coordinates": [-56.461674, -30.395136], "properties": {"name": "artigas-L035", "habilitados": 408, "nombre": "CENTRO DE SALUD"}}, {"type": "Point", "coordinates": [-56.46318, -30.395717], "properties": {"name": "artigas-L036", "habilitados": 408, "nombre": "ARMA"}}, {"type": "Point", "coordinates": [-56.468196, -30.39373], "properties": {"name": "artigas-L037", "habilitados": 816, "nombre": "ESC. 43"}}, {"type": "Point", "coordinates": [-56.4630406, -30.3970513], "properties": {"name": "artigas-L038", "habilitados": 408, "nombre": "IG DE JESUCRISTO 18 de mayo"}}, {"type": "Point", "coordinates": [-56.4601055, -30.4048113], "properties": {"name": "artigas-L039", "habilitados": 802, "nombre": "U.T.U"}}, {"type": "Point", "coordinates": [-56.460729, -30.405456], "properties": {"name": "artigas-L040", "habilitados": 802, "nombre": "LICEO 2"}}, {"type": "Point", "coordinates": [-56.461495, -30.405361], "properties": {"name": "artigas-L041", "habilitados": 802, "nombre": "IFD"}}, {"type": "Point", "coordinates": [-56.460074, -30.40466], "properties": {"name": "artigas-L042", "habilitados": 802, "nombre": "UTU C. BASICO"}}, {"type": "Point", "coordinates": [-56.46162, -30.40603], "properties": {"name": "artigas-L043", "habilitados": 802, "nombre": "ESC. 56"}}, {"type": "Point", "coordinates": [-56.461657, -30.401827], "properties": {"name": "artigas-L044", "habilitados": 401, "nombre": "LICEO TACUABE"}}, {"type": "Point", "coordinates": [-56.4862227, -30.4079748], "properties": {"name": "artigas-L045", "habilitados": 1612, "nombre": "IG DE JESUCRISTO a cheveste"}}, {"type": "Point", "coordinates": [-56.4870151, -30.4055223], "properties": {"name": "artigas-L046", "habilitados": 1206, "nombre": "ESC. 65"}}, {"type": "Point", "coordinates": [-56.486257, -30.401352], "properties": {"name": "artigas-L047", "habilitados": 371, "nombre": "CASA DE EJERCICIOS"}}, {"type": "Point", "coordinates": [-56.47921, -30.40867], "properties": {"name": "artigas-L048", "habilitados": 1113, "nombre": "CLUB ZORRILLA"}}, {"type": "Point", "coordinates": [-56.479645, -30.408546], "properties": {"name": "artigas-L049", "habilitados": 742, "nombre": "TALLERES MPALES."}}, {"type": "Point", "coordinates": [-56.4881255, -30.4168338], "properties": {"name": "artigas-L050", "habilitados": 1475, "nombre": "ESC. 40"}}, {"type": "Point", "coordinates": [-56.46313, -30.41616], "properties": {"name": "artigas-L051", "habilitados": 410, "nombre": "CAIF BAMBI"}}, {"type": "Point", "coordinates": [-56.471673, -30.410799], "properties": {"name": "artigas-L052", "habilitados": 1230, "nombre": "LICEO 3"}}, {"type": "Point", "coordinates": [-56.470429, -30.409947], "properties": {"name": "artigas-L053", "habilitados": 820, "nombre": "ESC. 17"}}, {"type": "Point", "coordinates": [-56.476043, -30.4045475], "properties": {"name": "artigas-L054", "habilitados": 820, "nombre": "ESC. 70"}}, {"type": "Point", "coordinates": [-56.460528, -30.41865], "properties": {"name": "artigas-L055", "habilitados": 1228, "nombre": "IG.DE JESUCRISTO ruta 30"}}, {"type": "Point", "coordinates": [-56.457558, -30.433388], "properties": {"name": "artigas-L056", "habilitados": 584, "nombre": "ESC. 36"}}, {"type": "Point", "coordinates": [-56457558.0, -30.433388], "properties": {"name": "artigas-L057", "habilitados": 290, "nombre": "LICEO 5"}}, {"type": "Point", "coordinates": [-56.25161, -30.77765], "properties": {"name": "artigas-L058", "habilitados": 61, "nombre": "ESCUELA 44"}}, {"type": "Point", "coordinates": [-56.163921, -30.699108], "properties": {"name": "artigas-L059", "habilitados": 123, "nombre": "ESCUELA 46"}}, {"type": "Point", "coordinates": [-56.8763894, -31.0001595], "properties": {"name": "artigas-L060", "habilitados": 566, "nombre": "ESCUELA N°28"}}, {"type": "Point", "coordinates": [-56.8771, -30.977473], "properties": {"name": "artigas-L061", "habilitados": 282, "nombre": "Liceo Local SEQUEIRA"}}, {"type": "Point", "coordinates": [-56.789381, -30.789396], "properties": {"name": "artigas-L062", "habilitados": 275, "nombre": "ESCUELA 38"}}, {"type": "Point", "coordinates": [-57.054491, -30.755104], "properties": {"name": "artigas-L063", "habilitados": 40, "nombre": "ESCUELA 35 DIEGO LAMAS"}}, {"type": "Point", "coordinates": [-57.086982, -30.589629], "properties": {"name": "artigas-L064", "habilitados": 16, "nombre": "ESCUELA 50 COLONIA ARTIGAS"}}, {"type": "Point", "coordinates": [-57.124501, -30.477267], "properties": {"name": "artigas-L065", "habilitados": 29, "nombre": "ESCUELA 60 PASO FARIAS"}}, {"type": "Point", "coordinates": [-57.3310523, -30.7194676], "properties": {"name": "artigas-L066", "habilitados": 574, "nombre": "ESC 77 B BRUM"}}, {"type": "Point", "coordinates": [-57.33179, -30.72012], "properties": {"name": "artigas-L067", "habilitados": 287, "nombre": "MUNICIPIO B BRUM"}}, {"type": "Point", "coordinates": [-57.332488, -30.719293], "properties": {"name": "artigas-L068", "habilitados": 287, "nombre": "CAIF CABELLITOS"}}, {"type": "Point", "coordinates": [-57.3288, -30.72128], "properties": {"name": "artigas-L069", "habilitados": 574, "nombre": "LICEO LOCAL B BRUM"}}, {"type": "Point", "coordinates": [-57.226679, -30.722859], "properties": {"name": "artigas-L070", "habilitados": 571, "nombre": "ESCUELA 23"}}, {"type": "Point", "coordinates": [-57.679968, -30.583481], "properties": {"name": "artigas-L071", "habilitados": 459, "nombre": "ESCUELA 39"}}, {"type": "Point", "coordinates": [-57.4354850999999, -30.4295949], "properties": {"name": "artigas-L072", "habilitados": 558, "nombre": "MUNICIPIO T GOMENSORO"}}, {"type": "Point", "coordinates": [-57.4329153999999, -30.4321096], "properties": {"name": "artigas-L073", "habilitados": 558, "nombre": "ESCUELA N° 5"}}, {"type": "Point", "coordinates": [-57.434629, -30.428766], "properties": {"name": "artigas-L074", "habilitados": 279, "nombre": "CENTRO MEC T GOMENSORO"}}, {"type": "Point", "coordinates": [-57.432793, -30.429519], "properties": {"name": "artigas-L075", "habilitados": 279, "nombre": "CAIF T GOMENSORO"}}, {"type": "Point", "coordinates": [-56.9264819, -30.4770479], "properties": {"name": "artigas-L076", "habilitados": 837, "nombre": "Liceo Local T GOMENSORO"}}, {"type": "Point", "coordinates": [-57.603605, -30.261228], "properties": {"name": "artigas-L077", "habilitados": 1203, "nombre": "MUNICIPIO BU"}}, {"type": "Point", "coordinates": [-57.606572, -30.261332], "properties": {"name": "artigas-L078", "habilitados": 1203, "nombre": "ESC. 3"}}, {"type": "Point", "coordinates": [-57606722.0, -30.260868], "properties": {"name": "artigas-L079", "habilitados": 401, "nombre": "BPS"}}, {"type": "Point", "coordinates": [-57.604779, -30.261696], "properties": {"name": "artigas-L080", "habilitados": 401, "nombre": "ADUANA"}}, {"type": "Point", "coordinates": [-57.604779, -30.259475], "properties": {"name": "artigas-L081", "habilitados": 401, "nombre": "CASA DE CULTURA BU"}}, {"type": "Point", "coordinates": [-57.602644, -30.258345], "properties": {"name": "artigas-L082", "habilitados": 401, "nombre": "ESC. 84"}}, {"type": "Point", "coordinates": [-57633540.0, -30.359937], "properties": {"name": "artigas-L083", "habilitados": 1203, "nombre": "LICEO 1"}}, {"type": "Point", "coordinates": [-57.597184, -30.254568], "properties": {"name": "artigas-L084", "habilitados": 802, "nombre": "ESC. 78 Y 88"}}, {"type": "Point", "coordinates": [-57.595725, -30.259184], "properties": {"name": "artigas-L085", "habilitados": 1203, "nombre": "UTU BU"}}, {"type": "Point", "coordinates": [-57.592442, -30.256264], "properties": {"name": "artigas-L086", "habilitados": 401, "nombre": "INAU BU"}}, {"type": "Point", "coordinates": [-57.58786, -30.25794], "properties": {"name": "artigas-L087", "habilitados": 401, "nombre": "TALLERES MPALES BU"}}, {"type": "Point", "coordinates": [-57.591348, -30.257159], "properties": {"name": "artigas-L088", "habilitados": 401, "nombre": "ASOC. JUBILADOS BU"}}, {"type": "Point", "coordinates": [-57.59011, -30.25491], "properties": {"name": "artigas-L089", "habilitados": 401, "nombre": "CENTRO DE SALUD"}}, {"type": "Point", "coordinates": [-57.59051, -30.25589], "properties": {"name": "artigas-L090", "habilitados": 802, "nombre": "LICEO N° 2 BU"}}, {"type": "Point", "coordinates": [-57.588902, -30.255574], "properties": {"name": "artigas-L091", "habilitados": 802, "nombre": "ESC. 81"}}, {"type": "Point", "coordinates": [-57.596833, -30.259478], "properties": {"name": "artigas-L092", "habilitados": 401, "nombre": "INS. TRABAJO BU"}}, {"type": "Point", "coordinates": [-57.590172, -30.25489], "properties": {"name": "artigas-L093", "habilitados": 389, "nombre": "ARBU"}}, {"type": "Point", "coordinates": [-57.571685, -30.229433], "properties": {"name": "artigas-L094", "habilitados": 852, "nombre": "ESCUELA 20"}}, {"type": "Point", "coordinates": [-57.580294, -30.24275], "properties": {"name": "artigas-L095", "habilitados": 852, "nombre": "ESCUELA N° 86"}}, {"type": "Point", "coordinates": [-57.593278, -30.259766], "properties": {"name": "artigas-L096", "habilitados": 284, "nombre": "CENTRO ATENCION CIUDADANA LAS PIEDRAS"}}, {"type": "Point", "coordinates": [-57.58304, -30.2468], "properties": {"name": "artigas-L097", "habilitados": 284, "nombre": "SALON MULTIUSO LAS PIEDRAS"}}, {"type": "Point", "coordinates": [-57.581783, -30.245644], "properties": {"name": "artigas-L098", "habilitados": 284, "nombre": "POLICLÍNICA LAS PIEDRAS"}}, {"type": "Point", "coordinates": [-57.571791, -30.312254], "properties": {"name": "artigas-L099", "habilitados": 267, "nombre": "ESCUELA N° 41"}}, {"type": "Point", "coordinates": [-57.60236, -30.29578], "properties": {"name": "artigas-L100", "habilitados": 534, "nombre": "ESCUELA N°31 CORONADO"}}, {"type": "Point", "coordinates": [-57.614172, -30.386277], "properties": {"name": "artigas-L101", "habilitados": 267, "nombre": "ESCUELA Nº64 CAINSA"}}, {"type": "Point", "coordinates": [-57664146.0, -30.373421], "properties": {"name": "artigas-L102", "habilitados": 265, "nombre": "ESCUELA N° 32 MONES QUINTELA"}}, {"type": "Point", "coordinates": [-56.63542, -30.599813], "properties": {"name": "artigas-L103", "habilitados": 6, "nombre": "ESCUELA N° 26 CERRO AMARILLO"}}, {"type": "Point", "coordinates": [-56.904942, -30.61183], "properties": {"name": "artigas-L104", "habilitados": 130, "nombre": "ESCUELA N° 24 ESTACIÓN CUARO"}}, {"type": "Point", "coordinates": [-56.821311, -30.297101], "properties": {"name": "artigas-L105", "habilitados": 243, "nombre": "ESCUELA N° 45 TOPADOR"}}, {"type": "Point", "coordinates": [-56.967292, -30.294491], "properties": {"name": "artigas-L106", "habilitados": 243, "nombre": "ESCUELA  N°6 B. RIVERA"}}]}}}